{
  "1": {
    "ID": 1,
    "Name": "River Street , Clerkenwell",
    "Lat": 51.52916347,
    "Long": -0.109970527
  },
  "2": {
    "ID": 2,
    "Name": "Phillimore Gardens, Kensington",
    "Lat": 51.49960695,
    "Long": -0.197574246
  },
  "3": {
    "ID": 3,
    "Name": "Christopher Street, Liverpool Street",
    "Lat": 51.52128377,
    "Long": -0.084605692
  },
  "4": {
    "ID": 4,
    "Name": "St. Chad's Street, King's Cross",
    "Lat": 51.53005939,
    "Long": -0.120973687
  },
  "5": {
    "ID": 5,
    "Name": "Sedding Street, Sloane Square",
    "Lat": 51.49313,
    "Long": -0.156876
  },
  "6": {
    "ID": 6,
    "Name": "Broadcasting House, Marylebone",
    "Lat": 51.51811784,
    "Long": -0.144228881
  },
  "7": {
    "ID": 7,
    "Name": "Charlbert Street, St. John's Wood",
    "Lat": 51.53430039,
    "Long": -0.1680743
  },
  "8": {
    "ID": 8,
    "Name": "Maida Vale, Maida Vale",
    "Lat": 51.529857,
    "Long": -0.18348604
  },
  "9": {
    "ID": 9,
    "Name": "New Globe Walk, Bankside",
    "Lat": 51.5073853,
    "Long": -0.096440751
  },
  "10": {
    "ID": 10,
    "Name": "Park Street, Bankside",
    "Lat": 51.50597426,
    "Long": -0.092754157
  },
  "11": {
    "ID": 11,
    "Name": "Brunswick Square, Bloomsbury",
    "Lat": 51.52395143,
    "Long": -0.122502346
  },
  "12": {
    "ID": 12,
    "Name": "Malet Street, Bloomsbury",
    "Lat": 51.52168078,
    "Long": -0.130431727
  },
  "13": {
    "ID": 13,
    "Name": "Scala Street, Fitzrovia",
    "Lat": 51.51991453,
    "Long": -0.136039674
  },
  "14": {
    "ID": 14,
    "Name": "Belgrove Street , King's Cross",
    "Lat": 51.52994371,
    "Long": -0.123616824
  },
  "15": {
    "ID": 15,
    "Name": "Great Russell Street, Bloomsbury",
    "Lat": 51.51772703,
    "Long": -0.127854211
  },
  "16": {
    "ID": 16,
    "Name": "Cartwright Gardens , Bloomsbury",
    "Lat": 51.52635795,
    "Long": -0.125979294
  },
  "17": {
    "ID": 17,
    "Name": "Hatton Wall, Holborn",
    "Lat": 51.5216612,
    "Long": -0.109006325
  },
  "18": {
    "ID": 18,
    "Name": "Drury Lane, Covent Garden",
    "Lat": 51.51477076,
    "Long": -0.12221963
  },
  "19": {
    "ID": 19,
    "Name": "Taviton Street, Bloomsbury",
    "Lat": 51.52505093,
    "Long": -0.131161087
  },
  "21": {
    "ID": 21,
    "Name": "Hampstead Road (Cartmel), Euston",
    "Lat": 51.53007835,
    "Long": -0.13884627
  },
  "22": {
    "ID": 22,
    "Name": "Northington Street , Holborn",
    "Lat": 51.5222641,
    "Long": -0.114079481
  },
  "23": {
    "ID": 23,
    "Name": "Red Lion Square, Holborn",
    "Lat": 51.51943538,
    "Long": -0.119123345
  },
  "24": {
    "ID": 24,
    "Name": "British Museum, Bloomsbury",
    "Lat": 51.51908011,
    "Long": -0.124678402
  },
  "25": {
    "ID": 25,
    "Name": "Doric Way , Somers Town",
    "Lat": 51.5288338,
    "Long": -0.132250369
  },
  "26": {
    "ID": 26,
    "Name": "Ampton Street , Clerkenwell",
    "Lat": 51.52728093,
    "Long": -0.11829517
  },
  "27": {
    "ID": 27,
    "Name": "Bouverie Street, Temple",
    "Lat": 51.51382102,
    "Long": -0.107927706
  },
  "28": {
    "ID": 28,
    "Name": "Bolsover Street, Fitzrovia",
    "Lat": 51.52351808,
    "Long": -0.143613641
  },
  "29": {
    "ID": 29,
    "Name": "Hereford Road, Bayswater",
    "Lat": 51.513735,
    "Long": -0.193487
  },
  "30": {
    "ID": 30,
    "Name": "Windsor Terrace, Hoxton",
    "Lat": 51.52915444,
    "Long": -0.093421615
  },
  "31": {
    "ID": 31,
    "Name": "Fanshaw Street, Hoxton",
    "Lat": 51.52953709,
    "Long": -0.083353323
  },
  "32": {
    "ID": 32,
    "Name": "Leonard Circus , Shoreditch",
    "Lat": 51.52469624,
    "Long": -0.084439283
  },
  "33": {
    "ID": 33,
    "Name": "Central House, Aldgate",
    "Lat": 51.5156,
    "Long": -0.070056
  },
  "34": {
    "ID": 34,
    "Name": "Pancras Road, King's Cross",
    "Lat": 51.5341235,
    "Long": -0.129386874
  },
  "36": {
    "ID": 36,
    "Name": "De Vere Gardens, Kensington",
    "Lat": 51.50173726,
    "Long": -0.184980612
  },
  "37": {
    "ID": 37,
    "Name": "Penywern Road, Earl's Court",
    "Lat": 51.49159394,
    "Long": -0.192369256
  },
  "38": {
    "ID": 38,
    "Name": "Abingdon Villas, Kensington",
    "Lat": 51.4973875,
    "Long": -0.197245586
  },
  "39": {
    "ID": 39,
    "Name": "Shoreditch High Street, Shoreditch",
    "Lat": 51.5263778,
    "Long": -0.078130921
  },
  "40": {
    "ID": 40,
    "Name": "Commercial Street, Shoreditch",
    "Lat": 51.52127071,
    "Long": -0.0755789
  },
  "41": {
    "ID": 41,
    "Name": "Pindar Street, Liverpool Street",
    "Lat": 51.520955,
    "Long": -0.083493552
  },
  "42": {
    "ID": 42,
    "Name": "Wenlock Road , Hoxton",
    "Lat": 51.53099181,
    "Long": -0.093903825
  },
  "43": {
    "ID": 43,
    "Name": "Crawford Street, Marylebone",
    "Lat": 51.52026,
    "Long": -0.157183945
  },
  "44": {
    "ID": 44,
    "Name": "Bruton Street, Mayfair",
    "Lat": 51.51073687,
    "Long": -0.144165239
  },
  "45": {
    "ID": 45,
    "Name": "Boston Place, Marylebone",
    "Lat": 51.522511,
    "Long": -0.162298
  },
  "46": {
    "ID": 46,
    "Name": "Nesham Street, Wapping",
    "Lat": 51.507131,
    "Long": -0.06691
  },
  "47": {
    "ID": 47,
    "Name": "Warwick Avenue Station, Maida Vale",
    "Lat": 51.52334476,
    "Long": -0.183846408
  },
  "48": {
    "ID": 48,
    "Name": "Godliman Street, St. Paul's",
    "Lat": 51.51248445,
    "Long": -0.099141408
  },
  "49": {
    "ID": 49,
    "Name": "Curzon Street, Mayfair",
    "Lat": 51.50706909,
    "Long": -0.145904427
  },
  "50": {
    "ID": 50,
    "Name": "East Road, Hoxton",
    "Lat": 51.52867339,
    "Long": -0.087459376
  },
  "51": {
    "ID": 51,
    "Name": "Finsbury Library , Finsbury",
    "Lat": 51.52671796,
    "Long": -0.104298194
  },
  "52": {
    "ID": 52,
    "Name": "Roscoe Street, St. Luke's",
    "Lat": 51.52295439,
    "Long": -0.094934859
  },
  "53": {
    "ID": 53,
    "Name": "Grafton Street, Mayfair",
    "Lat": 51.5099923,
    "Long": -0.143495266
  },
  "54": {
    "ID": 54,
    "Name": "Golden Lane, Barbican",
    "Lat": 51.52174785,
    "Long": -0.094475072
  },
  "55": {
    "ID": 55,
    "Name": "Finsbury Circus, Liverpool Street",
    "Lat": 51.51707521,
    "Long": -0.086685542
  },
  "56": {
    "ID": 56,
    "Name": "Paddington Street, Marylebone",
    "Lat": 51.52058381,
    "Long": -0.154701411
  },
  "57": {
    "ID": 57,
    "Name": "Guilford Street , Bloomsbury",
    "Lat": 51.52334672,
    "Long": -0.120202614
  },
  "58": {
    "ID": 58,
    "Name": "New Inn Yard, Shoreditch",
    "Lat": 51.52452699,
    "Long": -0.079248081
  },
  "60": {
    "ID": 60,
    "Name": "Lisson Grove, St. John's Wood",
    "Lat": 51.52644828,
    "Long": -0.172190727
  },
  "61": {
    "ID": 61,
    "Name": "Great Dover Street, The Borough",
    "Lat": 51.49738251,
    "Long": -0.089446947
  },
  "62": {
    "ID": 62,
    "Name": "Cotton Garden Estate, Kennington",
    "Lat": 51.4907579,
    "Long": -0.106323685
  },
  "63": {
    "ID": 63,
    "Name": "Murray Grove , Hoxton",
    "Lat": 51.53089041,
    "Long": -0.089782579
  },
  "64": {
    "ID": 64,
    "Name": "William IV Street, Strand",
    "Lat": 51.50946212,
    "Long": -0.124749274
  },
  "65": {
    "ID": 65,
    "Name": "Gower Place , Euston",
    "Lat": 51.52522753,
    "Long": -0.13518856
  },
  "66": {
    "ID": 66,
    "Name": "Holborn Circus, Holborn",
    "Lat": 51.51795029,
    "Long": -0.108657431
  },
  "67": {
    "ID": 67,
    "Name": "Hatton Garden, Holborn",
    "Lat": 51.51882555,
    "Long": -0.108028472
  },
  "68": {
    "ID": 68,
    "Name": "Theobald's Road , Holborn",
    "Lat": 51.52059681,
    "Long": -0.116688468
  },
  "69": {
    "ID": 69,
    "Name": "Euston Road, Euston",
    "Lat": 51.5262363,
    "Long": -0.134407652
  },
  "70": {
    "ID": 70,
    "Name": "Calshot Street , King's Cross",
    "Lat": 51.53136059,
    "Long": -0.117069978
  },
  "71": {
    "ID": 71,
    "Name": "Newgate Street , St. Paul's",
    "Lat": 51.5154186,
    "Long": -0.098850915
  },
  "72": {
    "ID": 72,
    "Name": "Farringdon Lane, Clerkenwell",
    "Lat": 51.52352001,
    "Long": -0.108340165
  },
  "73": {
    "ID": 73,
    "Name": "Old Street Station, St. Luke's",
    "Lat": 51.52572618,
    "Long": -0.088486188
  },
  "74": {
    "ID": 74,
    "Name": "Vauxhall Cross, Vauxhall",
    "Lat": 51.48591714,
    "Long": -0.124469948
  },
  "75": {
    "ID": 75,
    "Name": "Torrens Street, Angel",
    "Lat": 51.53219984,
    "Long": -0.105480698
  },
  "76": {
    "ID": 76,
    "Name": "Longford Street, The Regent's Park",
    "Lat": 51.52559505,
    "Long": -0.144083893
  },
  "77": {
    "ID": 77,
    "Name": "Russell Square Station, Bloomsbury",
    "Lat": 51.52341837,
    "Long": -0.124121774
  },
  "78": {
    "ID": 78,
    "Name": "Sadlers Sports Centre, Finsbury",
    "Lat": 51.52486887,
    "Long": -0.099489485
  },
  "79": {
    "ID": 79,
    "Name": "Arundel Street, Temple",
    "Lat": 51.511726,
    "Long": -0.11385596
  },
  "80": {
    "ID": 80,
    "Name": "Webber Street , Southwark",
    "Lat": 51.50069361,
    "Long": -0.102091246
  },
  "81": {
    "ID": 81,
    "Name": "Great Titchfield Street, Fitzrovia",
    "Lat": 51.52025302,
    "Long": -0.141327271
  },
  "82": {
    "ID": 82,
    "Name": "Chancery Lane, Holborn",
    "Lat": 51.514274,
    "Long": -0.111257
  },
  "83": {
    "ID": 83,
    "Name": "Panton Street, West End",
    "Lat": 51.50963938,
    "Long": -0.131510949
  },
  "84": {
    "ID": 84,
    "Name": "Breams Buildings, Holborn",
    "Lat": 51.51593725,
    "Long": -0.111778348
  },
  "85": {
    "ID": 85,
    "Name": "Tanner Street, Bermondsey",
    "Lat": 51.50064702,
    "Long": -0.078600401
  },
  "86": {
    "ID": 86,
    "Name": "Sancroft Street, Vauxhall",
    "Lat": 51.48947903,
    "Long": -0.115156562
  },
  "87": {
    "ID": 87,
    "Name": "Devonshire Square, Liverpool Street",
    "Lat": 51.51646835,
    "Long": -0.079684557
  },
  "88": {
    "ID": 88,
    "Name": "Bayley Street , Bloomsbury",
    "Lat": 51.51858757,
    "Long": -0.132053392
  },
  "89": {
    "ID": 89,
    "Name": "Tavistock Place, Bloomsbury",
    "Lat": 51.5262503,
    "Long": -0.123509611
  },
  "90": {
    "ID": 90,
    "Name": "Harrington Square 1, Camden Town",
    "Lat": 51.53301907,
    "Long": -0.139174593
  },
  "91": {
    "ID": 91,
    "Name": "Walnut Tree Walk, Vauxhall",
    "Lat": 51.49368637,
    "Long": -0.111014912
  },
  "92": {
    "ID": 92,
    "Name": "Borough Road, Elephant & Castle",
    "Lat": 51.49889832,
    "Long": -0.100440521
  },
  "93": {
    "ID": 93,
    "Name": "Cloudesley Road, Angel",
    "Lat": 51.53440868,
    "Long": -0.109025404
  },
  "94": {
    "ID": 94,
    "Name": "Bricklayers Arms, Borough",
    "Lat": 51.49506109,
    "Long": -0.085814489
  },
  "95": {
    "ID": 95,
    "Name": "Aldersgate Street, Barbican",
    "Lat": 51.5208417,
    "Long": -0.097340162
  },
  "96": {
    "ID": 96,
    "Name": "Falkirk Street, Hoxton",
    "Lat": 51.53095071,
    "Long": -0.078505384
  },
  "97": {
    "ID": 97,
    "Name": "Gloucester Road (North), Kensington",
    "Lat": 51.49792478,
    "Long": -0.183834706
  },
  "98": {
    "ID": 98,
    "Name": "Hampstead Road, Euston",
    "Lat": 51.52554222,
    "Long": -0.138231303
  },
  "99": {
    "ID": 99,
    "Name": "Old Quebec Street, Marylebone",
    "Lat": 51.51457763,
    "Long": -0.158264483
  },
  "100": {
    "ID": 100,
    "Name": "Albert Embankment, Vauxhall",
    "Lat": 51.49043573,
    "Long": -0.122806861
  },
  "101": {
    "ID": 101,
    "Name": "Queen Street 1, Bank",
    "Lat": 51.51155322,
    "Long": -0.0929401
  },
  "102": {
    "ID": 102,
    "Name": "Jewry Street, Aldgate",
    "Lat": 51.51340693,
    "Long": -0.076793375
  },
  "103": {
    "ID": 103,
    "Name": "Vicarage Gate, Kensington",
    "Lat": 51.50472376,
    "Long": -0.192538767
  },
  "104": {
    "ID": 104,
    "Name": "Crosswall, Tower",
    "Lat": 51.51159481,
    "Long": -0.077121322
  },
  "105": {
    "ID": 105,
    "Name": "Westbourne Grove, Bayswater",
    "Lat": 51.51552971,
    "Long": -0.190240716
  },
  "106": {
    "ID": 106,
    "Name": "Woodstock Street, Mayfair",
    "Lat": 51.51410514,
    "Long": -0.147301667
  },
  "107": {
    "ID": 107,
    "Name": "Finsbury Leisure Centre, St. Luke's",
    "Lat": 51.52600832,
    "Long": -0.096317627
  },
  "108": {
    "ID": 108,
    "Name": "Abbey Orchard Street, Westminster",
    "Lat": 51.49812559,
    "Long": -0.132102166
  },
  "109": {
    "ID": 109,
    "Name": "Soho Square , Soho",
    "Lat": 51.51563144,
    "Long": -0.132328837
  },
  "110": {
    "ID": 110,
    "Name": "Wellington Road, St. John's Wood",
    "Lat": 51.53304322,
    "Long": -0.172528678
  },
  "111": {
    "ID": 111,
    "Name": "Park Lane , Hyde Park",
    "Lat": 51.5100172,
    "Long": -0.157275636
  },
  "112": {
    "ID": 112,
    "Name": "Stonecutter Street, Holborn",
    "Lat": 51.51580998,
    "Long": -0.105270275
  },
  "113": {
    "ID": 113,
    "Name": "Gloucester Road (Central), South Kensington",
    "Lat": 51.49646288,
    "Long": -0.183289032
  },
  "114": {
    "ID": 114,
    "Name": "Park Road (Baker Street), The Regent's Park",
    "Lat": 51.52451738,
    "Long": -0.158963647
  },
  "115": {
    "ID": 115,
    "Name": "Braham Street, Aldgate",
    "Lat": 51.51423368,
    "Long": -0.073537654
  },
  "116": {
    "ID": 116,
    "Name": "Little Argyll Street, West End",
    "Lat": 51.51449962,
    "Long": -0.141423695
  },
  "117": {
    "ID": 117,
    "Name": "Lollard Street, Vauxhall",
    "Lat": 51.49288067,
    "Long": -0.114934001
  },
  "118": {
    "ID": 118,
    "Name": "Rochester Row, Westminster",
    "Lat": 51.49582705,
    "Long": -0.13547809
  },
  "119": {
    "ID": 119,
    "Name": "Bath Street, St. Luke's",
    "Lat": 51.52589324,
    "Long": -0.090847761
  },
  "120": {
    "ID": 120,
    "Name": "The Guildhall, Guildhall",
    "Lat": 51.51573534,
    "Long": -0.093080779
  },
  "121": {
    "ID": 121,
    "Name": "Baker Street, Marylebone",
    "Lat": 51.51891348,
    "Long": -0.156166631
  },
  "122": {
    "ID": 122,
    "Name": "Norton Folgate, Liverpool Street",
    "Lat": 51.52111369,
    "Long": -0.078869751
  },
  "123": {
    "ID": 123,
    "Name": "St. John Street, Finsbury",
    "Lat": 51.52836014,
    "Long": -0.104724625
  },
  "124": {
    "ID": 124,
    "Name": "Eaton Square, Belgravia",
    "Lat": 51.49654462,
    "Long": -0.150905245
  },
  "125": {
    "ID": 125,
    "Name": "Borough High Street, The Borough",
    "Lat": 51.50069491,
    "Long": -0.094524319
  },
  "126": {
    "ID": 126,
    "Name": "Museum of London, Barbican",
    "Lat": 51.51782144,
    "Long": -0.096496865
  },
  "127": {
    "ID": 127,
    "Name": "Wood Street, Guildhall",
    "Lat": 51.51700801,
    "Long": -0.09388536
  },
  "128": {
    "ID": 128,
    "Name": "Emperor's Gate, South Kensington",
    "Lat": 51.49536226,
    "Long": -0.185296516
  },
  "129": {
    "ID": 129,
    "Name": "Golden Square, Soho",
    "Lat": 51.5118973,
    "Long": -0.137043852
  },
  "130": {
    "ID": 130,
    "Name": "Tower Gardens , Tower",
    "Lat": 51.50950627,
    "Long": -0.075459482
  },
  "131": {
    "ID": 131,
    "Name": "Eversholt Street , Camden Town",
    "Lat": 51.53300545,
    "Long": -0.136792671
  },
  "132": {
    "ID": 132,
    "Name": "Bethnal Green Road, Shoreditch",
    "Lat": 51.52364804,
    "Long": -0.074754872
  },
  "133": {
    "ID": 133,
    "Name": "Derry Street, Kensington",
    "Lat": 51.50136494,
    "Long": -0.191462381
  },
  "134": {
    "ID": 134,
    "Name": "Wapping High Street, Wapping",
    "Lat": 51.504904,
    "Long": -0.06797
  },
  "135": {
    "ID": 135,
    "Name": "Clerkenwell Green, Clerkenwell",
    "Lat": 51.52326004,
    "Long": -0.104708922
  },
  "136": {
    "ID": 136,
    "Name": "Queen Victoria Street, St. Paul's",
    "Lat": 51.51196176,
    "Long": -0.097441687
  },
  "138": {
    "ID": 138,
    "Name": "Green Street, Mayfair",
    "Lat": 51.51227622,
    "Long": -0.157436972
  },
  "139": {
    "ID": 139,
    "Name": "Lambeth Road, Vauxhall",
    "Lat": 51.49488108,
    "Long": -0.117974901
  },
  "140": {
    "ID": 140,
    "Name": "Finsbury Square , Moorgate",
    "Lat": 51.52096262,
    "Long": -0.085634242
  },
  "141": {
    "ID": 141,
    "Name": "Chapel Place, Marylebone",
    "Lat": 51.51530805,
    "Long": -0.147203711
  },
  "142": {
    "ID": 142,
    "Name": "West Cromwell Road, Earl's Court",
    "Lat": 51.49372451,
    "Long": -0.198286569
  },
  "143": {
    "ID": 143,
    "Name": "Pont Street, Knightsbridge",
    "Lat": 51.4968865,
    "Long": -0.161203828
  },
  "144": {
    "ID": 144,
    "Name": "Kennington Cross, Kennington",
    "Lat": 51.48894022,
    "Long": -0.111435796
  },
  "145": {
    "ID": 145,
    "Name": "Ilchester Place, Kensington",
    "Lat": 51.50074359,
    "Long": -0.202759212
  },
  "146": {
    "ID": 146,
    "Name": "Vauxhall Bridge , Pimlico",
    "Lat": 51.48836528,
    "Long": -0.129361842
  },
  "148": {
    "ID": 148,
    "Name": "Tachbrook Street, Victoria",
    "Lat": 51.49211134,
    "Long": -0.138364847
  },
  "149": {
    "ID": 149,
    "Name": "Kennington Road Post Office, Oval",
    "Lat": 51.48478899,
    "Long": -0.110683213
  },
  "150": {
    "ID": 150,
    "Name": "Holy Trinity Brompton, Knightsbridge",
    "Lat": 51.49705603,
    "Long": -0.168917077
  },
  "151": {
    "ID": 151,
    "Name": "Chepstow Villas, Notting Hill",
    "Lat": 51.51213691,
    "Long": -0.201554966
  },
  "152": {
    "ID": 152,
    "Name": "Hampton Street, Walworth",
    "Lat": 51.49217002,
    "Long": -0.101536865
  },
  "154": {
    "ID": 154,
    "Name": "Waterloo Station 3, Waterloo",
    "Lat": 51.50379168,
    "Long": -0.11282408
  },
  "155": {
    "ID": 155,
    "Name": "Lexham Gardens, Kensington",
    "Lat": 51.49586666,
    "Long": -0.191933711
  },
  "156": {
    "ID": 156,
    "Name": "New Kent Road, The Borough",
    "Lat": 51.49443626,
    "Long": -0.092921165
  },
  "157": {
    "ID": 157,
    "Name": "Wright's Lane, Kensington",
    "Lat": 51.50039792,
    "Long": -0.193068385
  },
  "158": {
    "ID": 158,
    "Name": "Trebovir Road, Earl's Court",
    "Lat": 51.49085368,
    "Long": -0.196170309
  },
  "159": {
    "ID": 159,
    "Name": "Great Marlborough Street, Soho",
    "Lat": 51.51461995,
    "Long": -0.137841333
  },
  "160": {
    "ID": 160,
    "Name": "Waterloo Place, St. James's",
    "Lat": 51.50663341,
    "Long": -0.131773845
  },
  "161": {
    "ID": 161,
    "Name": "Guildhouse Street, Victoria",
    "Lat": 51.49234577,
    "Long": -0.141334487
  },
  "162": {
    "ID": 162,
    "Name": "Southampton Place, Holborn",
    "Lat": 51.51760685,
    "Long": -0.121328408
  },
  "163": {
    "ID": 163,
    "Name": "Sloane Avenue, Knightsbridge",
    "Lat": 51.4931848,
    "Long": -0.167894973
  },
  "164": {
    "ID": 164,
    "Name": "Cleveland Gardens, Bayswater",
    "Lat": 51.515607,
    "Long": -0.183118788
  },
  "165": {
    "ID": 165,
    "Name": "Orsett Terrace, Bayswater",
    "Lat": 51.517932,
    "Long": -0.183716959
  },
  "166": {
    "ID": 166,
    "Name": "Seville Street, Knightsbridge",
    "Lat": 51.50185512,
    "Long": -0.159237081
  },
  "167": {
    "ID": 167,
    "Name": "Eccleston Place, Victoria",
    "Lat": 51.49395092,
    "Long": -0.147624377
  },
  "168": {
    "ID": 168,
    "Name": "Argyll Road, Kensington",
    "Lat": 51.50040123,
    "Long": -0.195455928
  },
  "169": {
    "ID": 169,
    "Name": "Porchester Place, Paddington",
    "Lat": 51.51474612,
    "Long": -0.165164288
  },
  "170": {
    "ID": 170,
    "Name": "Hardwick Street, Clerkenwell",
    "Lat": 51.52784273,
    "Long": -0.108068155
  },
  "171": {
    "ID": 171,
    "Name": "Collingham Gardens, Earl's Court",
    "Lat": 51.4916156,
    "Long": -0.186753859
  },
  "172": {
    "ID": 172,
    "Name": "Sumner Place, South Kensington",
    "Lat": 51.49121192,
    "Long": -0.173715911
  },
  "173": {
    "ID": 173,
    "Name": "Waterloo Road, South Bank",
    "Lat": 51.50486,
    "Long": -0.113001
  },
  "174": {
    "ID": 174,
    "Name": "Strand, Strand",
    "Lat": 51.512529,
    "Long": -0.115163
  },
  "175": {
    "ID": 175,
    "Name": "Worship Street, Shoreditch",
    "Lat": 51.521773,
    "Long": -0.0811189
  },
  "176": {
    "ID": 176,
    "Name": "Gloucester Terrace, Bayswater",
    "Lat": 51.51791921,
    "Long": -0.188098863
  },
  "177": {
    "ID": 177,
    "Name": "Ashley Place, Victoria",
    "Lat": 51.49616092,
    "Long": -0.140947636
  },
  "178": {
    "ID": 178,
    "Name": "Warwick Square, Pimlico",
    "Lat": 51.48985626,
    "Long": -0.141923621
  },
  "180": {
    "ID": 180,
    "Name": "North Audley Street, Mayfair",
    "Lat": 51.5129118,
    "Long": -0.153645496
  },
  "181": {
    "ID": 181,
    "Name": "Belgrave Square, Belgravia",
    "Lat": 51.49941247,
    "Long": -0.152317537
  },
  "182": {
    "ID": 182,
    "Name": "Bell Street , Marylebone",
    "Lat": 51.52202903,
    "Long": -0.165842551
  },
  "183": {
    "ID": 183,
    "Name": "Riverlight North, Nine Elms",
    "Lat": 51.482362,
    "Long": -0.13612398
  },
  "184": {
    "ID": 184,
    "Name": "Portland Place, Marylebone",
    "Lat": 51.52071513,
    "Long": -0.14521173
  },
  "185": {
    "ID": 185,
    "Name": "Alderney Street, Pimlico",
    "Lat": 51.48805753,
    "Long": -0.140741432
  },
  "186": {
    "ID": 186,
    "Name": "South Wharf Road, Paddington",
    "Lat": 51.51733558,
    "Long": -0.175810943
  },
  "187": {
    "ID": 187,
    "Name": "Queen's Gate (South), South Kensington",
    "Lat": 51.49247977,
    "Long": -0.178433004
  },
  "188": {
    "ID": 188,
    "Name": "Nutford Place, Marylebone",
    "Lat": 51.5165179,
    "Long": -0.164393768
  },
  "189": {
    "ID": 189,
    "Name": "Claremont Square, Angel",
    "Lat": 51.53166681,
    "Long": -0.109914711
  },
  "190": {
    "ID": 190,
    "Name": "Rampayne Street, Pimlico",
    "Lat": 51.48997562,
    "Long": -0.132845681
  },
  "191": {
    "ID": 191,
    "Name": "Hyde Park Corner, Hyde Park",
    "Lat": 51.50311799,
    "Long": -0.153520935
  },
  "192": {
    "ID": 192,
    "Name": "Wardour Street, Soho",
    "Lat": 51.51251523,
    "Long": -0.133201961
  },
  "193": {
    "ID": 193,
    "Name": "Bankside Mix, Bankside",
    "Lat": 51.50581776,
    "Long": -0.100186337
  },
  "194": {
    "ID": 194,
    "Name": "Hop Exchange, The Borough",
    "Lat": 51.50462759,
    "Long": -0.091773776
  },
  "195": {
    "ID": 195,
    "Name": "Milroy Walk, South Bank",
    "Lat": 51.50724437,
    "Long": -0.106237501
  },
  "196": {
    "ID": 196,
    "Name": "Union Street, The Borough",
    "Lat": 51.50368837,
    "Long": -0.098497684
  },
  "197": {
    "ID": 197,
    "Name": "Stamford Street, South Bank",
    "Lat": 51.50556905,
    "Long": -0.111606696
  },
  "199": {
    "ID": 199,
    "Name": "Great Tower Street, Monument",
    "Lat": 51.51048489,
    "Long": -0.082989638
  },
  "200": {
    "ID": 200,
    "Name": "LMU Commercial Road, Whitechapel",
    "Lat": 51.51492456,
    "Long": -0.066078037
  },
  "201": {
    "ID": 201,
    "Name": "Dorset Square, Marylebone",
    "Lat": 51.5225965,
    "Long": -0.161113413
  },
  "202": {
    "ID": 202,
    "Name": "Leman Street, Aldgate",
    "Lat": 51.51236389,
    "Long": -0.06954201
  },
  "203": {
    "ID": 203,
    "Name": "West Smithfield Rotunda, Farringdon",
    "Lat": 51.51821864,
    "Long": -0.100791005
  },
  "204": {
    "ID": 204,
    "Name": "Margery Street, Clerkenwell",
    "Lat": 51.52659961,
    "Long": -0.112432615
  },
  "206": {
    "ID": 206,
    "Name": "New Road 1 , Whitechapel",
    "Lat": 51.518154,
    "Long": -0.062697
  },
  "207": {
    "ID": 207,
    "Name": "Grosvenor Crescent, Belgravia",
    "Lat": 51.50135267,
    "Long": -0.153194766
  },
  "208": {
    "ID": 208,
    "Name": "Mallory Street, Marylebone",
    "Lat": 51.52505151,
    "Long": -0.166304359
  },
  "209": {
    "ID": 209,
    "Name": "Denyer Street, Knightsbridge",
    "Lat": 51.49358391,
    "Long": -0.165101392
  },
  "211": {
    "ID": 211,
    "Name": "Cadogan Place, Knightsbridge",
    "Lat": 51.49464523,
    "Long": -0.158105512
  },
  "212": {
    "ID": 212,
    "Name": "Campden Hill Road, Notting Hill",
    "Lat": 51.50658458,
    "Long": -0.199004026
  },
  "213": {
    "ID": 213,
    "Name": "Wellington Arch, Hyde Park",
    "Lat": 51.50274025,
    "Long": -0.149569201
  },
  "214": {
    "ID": 214,
    "Name": "Endsleigh Gardens, Euston",
    "Lat": 51.52683806,
    "Long": -0.130504336
  },
  "215": {
    "ID": 215,
    "Name": "Moorfields, Moorgate",
    "Lat": 51.51906932,
    "Long": -0.088285377
  },
  "216": {
    "ID": 216,
    "Name": "Old Brompton Road, South Kensington",
    "Lat": 51.49094565,
    "Long": -0.181190899
  },
  "217": {
    "ID": 217,
    "Name": "Wormwood Street, Liverpool Street",
    "Lat": 51.51615461,
    "Long": -0.082422399
  },
  "218": {
    "ID": 218,
    "Name": "St. Luke's Church, Chelsea",
    "Lat": 51.48971651,
    "Long": -0.170194408
  },
  "219": {
    "ID": 219,
    "Name": "Bramham Gardens, Earl's Court",
    "Lat": 51.49016361,
    "Long": -0.19039362
  },
  "220": {
    "ID": 220,
    "Name": "Chelsea Green, Chelsea",
    "Lat": 51.49066456,
    "Long": -0.166485083
  },
  "221": {
    "ID": 221,
    "Name": "Horseferry Road, Westminster",
    "Lat": 51.49481649,
    "Long": -0.13045856
  },
  "222": {
    "ID": 222,
    "Name": "Knightsbridge, Hyde Park",
    "Lat": 51.50275704,
    "Long": -0.155349725
  },
  "223": {
    "ID": 223,
    "Name": "Rodney Road , Walworth",
    "Lat": 51.49148474,
    "Long": -0.090220911
  },
  "224": {
    "ID": 224,
    "Name": "Whiteley's, Bayswater",
    "Lat": 51.51476963,
    "Long": -0.188129731
  },
  "225": {
    "ID": 225,
    "Name": "Notting Hill Gate Station, Notting Hill",
    "Lat": 51.50935342,
    "Long": -0.196422
  },
  "226": {
    "ID": 226,
    "Name": "Charles II Street, West End",
    "Lat": 51.50844614,
    "Long": -0.131961389
  },
  "227": {
    "ID": 227,
    "Name": "Great Percy Street, Clerkenwell",
    "Lat": 51.52891573,
    "Long": -0.115480888
  },
  "228": {
    "ID": 228,
    "Name": "St. James's Square, St. James's",
    "Lat": 51.50742485,
    "Long": -0.134621209
  },
  "229": {
    "ID": 229,
    "Name": "Whitehall Place, Strand",
    "Lat": 51.50654321,
    "Long": -0.123179697
  },
  "230": {
    "ID": 230,
    "Name": "Poured Lines, Bankside",
    "Lat": 51.50669284,
    "Long": -0.103137426
  },
  "231": {
    "ID": 231,
    "Name": "Queen's Gate (Central), South Kensington",
    "Lat": 51.49396755,
    "Long": -0.17873226
  },
  "232": {
    "ID": 232,
    "Name": "Carey Street, Holborn",
    "Lat": 51.51501025,
    "Long": -0.112753217
  },
  "233": {
    "ID": 233,
    "Name": "Pall Mall East, West End",
    "Lat": 51.50777049,
    "Long": -0.130699733
  },
  "234": {
    "ID": 234,
    "Name": "Liverpool Road (N1 Centre), Angel",
    "Lat": 51.53450449,
    "Long": -0.106992706
  },
  "235": {
    "ID": 235,
    "Name": "Kennington Road  , Vauxhall",
    "Lat": 51.49571828,
    "Long": -0.110889274
  },
  "236": {
    "ID": 236,
    "Name": "Fashion Street, Whitechapel",
    "Lat": 51.51838043,
    "Long": -0.073438925
  },
  "237": {
    "ID": 237,
    "Name": "Dock Street, Wapping",
    "Lat": 51.5097860151,
    "Long": -0.0681619805156
  },
  "238": {
    "ID": 238,
    "Name": "Frampton Street, Paddington",
    "Lat": 51.5233534,
    "Long": -0.175116099
  },
  "239": {
    "ID": 239,
    "Name": "Warren Street Station, Euston",
    "Lat": 51.52443845,
    "Long": -0.138019439
  },
  "240": {
    "ID": 240,
    "Name": "Colombo Street, Southwark",
    "Lat": 51.50545935,
    "Long": -0.10569204
  },
  "242": {
    "ID": 242,
    "Name": "Beaumont Street, Marylebone",
    "Lat": 51.52200801,
    "Long": -0.151359288
  },
  "243": {
    "ID": 243,
    "Name": "Gloucester Street, Pimlico",
    "Lat": 51.49096258,
    "Long": -0.139625122
  },
  "244": {
    "ID": 244,
    "Name": "Earnshaw Street , Covent Garden",
    "Lat": 51.51611887,
    "Long": -0.128585022
  },
  "245": {
    "ID": 245,
    "Name": "Grosvenor Road, Pimlico",
    "Lat": 51.4853572,
    "Long": -0.142207481
  },
  "246": {
    "ID": 246,
    "Name": "Berry Street, Clerkenwell",
    "Lat": 51.52285301,
    "Long": -0.099994052
  },
  "247": {
    "ID": 247,
    "Name": "St. John's Wood Church, The Regent's Park",
    "Lat": 51.530052,
    "Long": -0.168314
  },
  "248": {
    "ID": 248,
    "Name": "Triangle Car Park, Hyde Park",
    "Lat": 51.50645179,
    "Long": -0.170279555
  },
  "249": {
    "ID": 249,
    "Name": "Harper Road, The Borough",
    "Lat": 51.49859784,
    "Long": -0.096191134
  },
  "250": {
    "ID": 250,
    "Name": "Royal Avenue 1, Chelsea",
    "Lat": 51.489932,
    "Long": -0.162727
  },
  "251": {
    "ID": 251,
    "Name": "Brushfield Street, Liverpool Street",
    "Lat": 51.518908,
    "Long": -0.079249
  },
  "252": {
    "ID": 252,
    "Name": "Jubilee Gardens, South Bank",
    "Lat": 51.5046364,
    "Long": -0.116542278
  },
  "253": {
    "ID": 253,
    "Name": "Shoreditch Park, Hoxton",
    "Lat": 51.53404294,
    "Long": -0.086379717
  },
  "254": {
    "ID": 254,
    "Name": "Chadwell Street, Angel",
    "Lat": 51.53051587,
    "Long": -0.106408455
  },
  "255": {
    "ID": 255,
    "Name": "Clifton Road, Maida Vale",
    "Lat": 51.52557531,
    "Long": -0.179592915
  },
  "256": {
    "ID": 256,
    "Name": "Houghton Street, Strand",
    "Lat": 51.51362054,
    "Long": -0.116764211
  },
  "257": {
    "ID": 257,
    "Name": "Westminster University, Marylebone",
    "Lat": 51.52248185,
    "Long": -0.154907218
  },
  "258": {
    "ID": 258,
    "Name": "Kensington Gore, Knightsbridge",
    "Lat": 51.50143293,
    "Long": -0.178656971
  },
  "259": {
    "ID": 259,
    "Name": "Bourne Street, Belgravia",
    "Lat": 51.491495,
    "Long": -0.15400472
  },
  "260": {
    "ID": 260,
    "Name": "Broadwick Street, Soho",
    "Lat": 51.5136846,
    "Long": -0.135580879
  },
  "261": {
    "ID": 261,
    "Name": "Princes Square, Bayswater",
    "Lat": 51.5134891,
    "Long": -0.191351186
  },
  "262": {
    "ID": 262,
    "Name": "LSBU (Borough Road), Elephant & Castle",
    "Lat": 51.49874469,
    "Long": -0.103132904
  },
  "263": {
    "ID": 263,
    "Name": "St. Mary Axe, Aldgate",
    "Lat": 51.51422502,
    "Long": -0.080660083
  },
  "264": {
    "ID": 264,
    "Name": "Tysoe Street, Clerkenwell",
    "Lat": 51.52644342,
    "Long": -0.109256828
  },
  "265": {
    "ID": 265,
    "Name": "Southwick Street, Paddington",
    "Lat": 51.51595344,
    "Long": -0.169249375
  },
  "266": {
    "ID": 266,
    "Name": "Queen's Gate (North), Kensington",
    "Lat": 51.50102668,
    "Long": -0.180246101
  },
  "267": {
    "ID": 267,
    "Name": "Regency Street, Westminster",
    "Lat": 51.49206037,
    "Long": -0.132224622
  },
  "268": {
    "ID": 268,
    "Name": "Belgrave Road, Victoria",
    "Lat": 51.49320445,
    "Long": -0.144132875
  },
  "270": {
    "ID": 270,
    "Name": "Kennington Lane Rail Bridge, Vauxhall",
    "Lat": 51.4863434,
    "Long": -0.122492418
  },
  "271": {
    "ID": 271,
    "Name": "London Zoo,  The Regent's Park",
    "Lat": 51.53583617,
    "Long": -0.156285395
  },
  "272": {
    "ID": 272,
    "Name": "Baylis Road, Waterloo",
    "Lat": 51.50144456,
    "Long": -0.110699309
  },
  "273": {
    "ID": 273,
    "Name": "Belvedere Road 1, South Bank",
    "Lat": 51.50613324,
    "Long": -0.114686385
  },
  "274": {
    "ID": 274,
    "Name": "Warwick Road, Olympia",
    "Lat": 51.49671237,
    "Long": -0.20528437
  },
  "275": {
    "ID": 275,
    "Name": "Barbican Centre, Barbican",
    "Lat": 51.52004497,
    "Long": -0.092176447
  },
  "276": {
    "ID": 276,
    "Name": "Lower Thames Street, Monument",
    "Lat": 51.50930161,
    "Long": -0.084985356
  },
  "277": {
    "ID": 277,
    "Name": "Kensington Church Street, Kensington",
    "Lat": 51.50315739,
    "Long": -0.191496313
  },
  "278": {
    "ID": 278,
    "Name": "Tooley Street, Bermondsey",
    "Lat": 51.5034938,
    "Long": -0.07962099
  },
  "279": {
    "ID": 279,
    "Name": "North Wharf Road, Paddington",
    "Lat": 51.51862243,
    "Long": -0.176645823
  },
  "280": {
    "ID": 280,
    "Name": "Royal Avenue 2, Chelsea",
    "Lat": 51.490083,
    "Long": -0.162418
  },
  "281": {
    "ID": 281,
    "Name": "Smith Square, Westminster",
    "Lat": 51.49580589,
    "Long": -0.127575233
  },
  "282": {
    "ID": 282,
    "Name": "Royal London Hospital, Whitechapel",
    "Lat": 51.51906446,
    "Long": -0.059642081
  },
  "283": {
    "ID": 283,
    "Name": "Kingsway, Covent Garden",
    "Lat": 51.51440928,
    "Long": -0.118478757
  },
  "286": {
    "ID": 286,
    "Name": "St. John's Wood Road, St. John's Wood",
    "Lat": 51.5272947,
    "Long": -0.174653609
  },
  "287": {
    "ID": 287,
    "Name": "Bedford Way, Bloomsbury",
    "Lat": 51.52367314,
    "Long": -0.128377673
  },
  "288": {
    "ID": 288,
    "Name": "Elizabeth Bridge, Victoria",
    "Lat": 51.49236962,
    "Long": -0.147478734
  },
  "289": {
    "ID": 289,
    "Name": "South Audley Street, Mayfair",
    "Lat": 51.50923022,
    "Long": -0.151296092
  },
  "290": {
    "ID": 290,
    "Name": "Winsland Street, Paddington",
    "Lat": 51.51678023,
    "Long": -0.175488803
  },
  "291": {
    "ID": 291,
    "Name": "Claverton Street, Pimlico",
    "Lat": 51.48483991,
    "Long": -0.138089062
  },
  "292": {
    "ID": 292,
    "Name": "Montpelier Street, Knightsbridge",
    "Lat": 51.49888404,
    "Long": -0.165471605
  },
  "293": {
    "ID": 293,
    "Name": "Kensington Olympia Station, Olympia",
    "Lat": 51.49815779,
    "Long": -0.209494128
  },
  "294": {
    "ID": 294,
    "Name": "St. George's Square, Pimlico",
    "Lat": 51.488226,
    "Long": -0.135635511
  },
  "295": {
    "ID": 295,
    "Name": "Swan Street, The Borough",
    "Lat": 51.50029631,
    "Long": -0.092762704
  },
  "296": {
    "ID": 296,
    "Name": "Knaresborough Place, Earl's Court",
    "Lat": 51.49363156,
    "Long": -0.190603326
  },
  "297": {
    "ID": 297,
    "Name": "Geraldine Street, Elephant & Castle",
    "Lat": 51.49612799,
    "Long": -0.106000855
  },
  "298": {
    "ID": 298,
    "Name": "Curlew Street, Shad Thames",
    "Lat": 51.50227992,
    "Long": -0.074189225
  },
  "299": {
    "ID": 299,
    "Name": "Vincent Square, Westminster",
    "Lat": 51.49398524,
    "Long": -0.136928582
  },
  "300": {
    "ID": 300,
    "Name": "Serpentine Car Park, Hyde Park",
    "Lat": 51.505014,
    "Long": -0.17306032
  },
  "301": {
    "ID": 301,
    "Name": "Marylebone Lane, Marylebone",
    "Lat": 51.51475963,
    "Long": -0.148105415
  },
  "302": {
    "ID": 302,
    "Name": "Putney Pier, Wandsworth",
    "Lat": 51.466907,
    "Long": -0.216573
  },
  "303": {
    "ID": 303,
    "Name": "Albert Gate, Hyde Park",
    "Lat": 51.50295379,
    "Long": -0.158456089
  },
  "305": {
    "ID": 305,
    "Name": "Kennington Lane Tesco, Vauxhall",
    "Lat": 51.48677988,
    "Long": -0.115853961
  },
  "306": {
    "ID": 306,
    "Name": "Rathbone Street, Fitzrovia ",
    "Lat": 51.51816295,
    "Long": -0.135025698
  },
  "307": {
    "ID": 307,
    "Name": "Black Lion Gate, Kensington Gardens",
    "Lat": 51.50990837,
    "Long": -0.187842717
  },
  "308": {
    "ID": 308,
    "Name": "Long Lane , Bermondsey",
    "Lat": 51.49907558,
    "Long": -0.085666316
  },
  "309": {
    "ID": 309,
    "Name": "Embankment (Savoy), Strand",
    "Lat": 51.50963123,
    "Long": -0.119047563
  },
  "310": {
    "ID": 310,
    "Name": "Black Prince Road, Vauxhall",
    "Lat": 51.4908679,
    "Long": -0.116911864
  },
  "312": {
    "ID": 312,
    "Name": "Grove End Road, St. John's Wood",
    "Lat": 51.53088935,
    "Long": -0.176770502
  },
  "313": {
    "ID": 313,
    "Name": "Wells Street, Fitzrovia ",
    "Lat": 51.51734403,
    "Long": -0.138072691
  },
  "314": {
    "ID": 314,
    "Name": "Tyers Gate, Bermondsey",
    "Lat": 51.50088934,
    "Long": -0.083159352
  },
  "315": {
    "ID": 315,
    "Name": "The Tennis Courts, The Regent's Park",
    "Lat": 51.52536703,
    "Long": -0.153463612
  },
  "317": {
    "ID": 317,
    "Name": "Dickens Square, Borough",
    "Lat": 51.49679128,
    "Long": -0.093913472
  },
  "318": {
    "ID": 318,
    "Name": "Sackville Street, Mayfair",
    "Lat": 51.51004801,
    "Long": -0.138846453
  },
  "319": {
    "ID": 319,
    "Name": "Baldwin Street, St. Luke's",
    "Lat": 51.52702563,
    "Long": -0.088542771
  },
  "320": {
    "ID": 320,
    "Name": "Queen Mother Sports Centre, Victoria",
    "Lat": 51.49357351,
    "Long": -0.139956043
  },
  "321": {
    "ID": 321,
    "Name": "Bermondsey Street, Bermondsey",
    "Lat": 51.49785559,
    "Long": -0.081608045
  },
  "322": {
    "ID": 322,
    "Name": "Palissy Street, Shoreditch",
    "Lat": 51.526293,
    "Long": -0.073955
  },
  "323": {
    "ID": 323,
    "Name": "Clifton Street, Shoreditch",
    "Lat": 51.523196,
    "Long": -0.083067
  },
  "324": {
    "ID": 324,
    "Name": "Ontario Street, Elephant & Castle",
    "Lat": 51.49652013,
    "Long": -0.101384068
  },
  "325": {
    "ID": 325,
    "Name": "St. Martin's Street, West End",
    "Lat": 51.50908747,
    "Long": -0.129697889
  },
  "326": {
    "ID": 326,
    "Name": "Graham Street, Angel",
    "Lat": 51.53266186,
    "Long": -0.099981142
  },
  "327": {
    "ID": 327,
    "Name": "New North Road 1, Hoxton",
    "Lat": 51.53095,
    "Long": -0.085603
  },
  "328": {
    "ID": 328,
    "Name": "New North Road 2, Hoxton",
    "Lat": 51.53114,
    "Long": -0.086016
  },
  "329": {
    "ID": 329,
    "Name": "Prince Albert Road, The Regent's Park",
    "Lat": 51.53589283,
    "Long": -0.160854428
  },
  "330": {
    "ID": 330,
    "Name": "Eastbourne Mews, Paddington",
    "Lat": 51.51641749,
    "Long": -0.179135079
  },
  "331": {
    "ID": 331,
    "Name": "Bunhill Row, Moorgate",
    "Lat": 51.52085887,
    "Long": -0.089887855
  },
  "332": {
    "ID": 332,
    "Name": "Nevern Place, Earl's Court",
    "Lat": 51.49334336,
    "Long": -0.194757949
  },
  "333": {
    "ID": 333,
    "Name": "Palace Gardens Terrace, Notting Hill",
    "Lat": 51.50860544,
    "Long": -0.193764092
  },
  "334": {
    "ID": 334,
    "Name": "Concert Hall Approach 1, South Bank",
    "Lat": 51.505044,
    "Long": -0.115851
  },
  "335": {
    "ID": 335,
    "Name": "Tavistock Street, Covent Garden",
    "Lat": 51.51196803,
    "Long": -0.120718759
  },
  "336": {
    "ID": 336,
    "Name": "Concert Hall Approach 2, South Bank",
    "Lat": 51.504942,
    "Long": -0.115533
  },
  "337": {
    "ID": 337,
    "Name": "Pembridge Villas, Notting Hill",
    "Lat": 51.51108452,
    "Long": -0.197524944
  },
  "338": {
    "ID": 338,
    "Name": "Wellington Street , Strand",
    "Lat": 51.51175646,
    "Long": -0.119643424
  },
  "339": {
    "ID": 339,
    "Name": "Risinghill Street, Angel",
    "Lat": 51.5333196,
    "Long": -0.1117812
  },
  "340": {
    "ID": 340,
    "Name": "Bank of England Museum, Bank",
    "Lat": 51.51444134,
    "Long": -0.087587447
  },
  "341": {
    "ID": 341,
    "Name": "Craven Street, Strand",
    "Lat": 51.50810309,
    "Long": -0.12602103
  },
  "343": {
    "ID": 343,
    "Name": "London Zoo Car Park, The Regent's Park",
    "Lat": 51.53692216,
    "Long": -0.150181444
  },
  "344": {
    "ID": 344,
    "Name": "Goswell Road (City Uni), Finsbury",
    "Lat": 51.528246,
    "Long": -0.10102611
  },
  "345": {
    "ID": 345,
    "Name": "Flood Street, Chelsea",
    "Lat": 51.48802358,
    "Long": -0.166878535
  },
  "347": {
    "ID": 347,
    "Name": "Lower Marsh, Waterloo",
    "Lat": 51.50013942,
    "Long": -0.113936001
  },
  "348": {
    "ID": 348,
    "Name": "Grosvenor Square, Mayfair",
    "Lat": 51.51217033,
    "Long": -0.150481272
  },
  "349": {
    "ID": 349,
    "Name": "St. George Street, Mayfair",
    "Lat": 51.51196,
    "Long": -0.142783033
  },
  "350": {
    "ID": 350,
    "Name": "Queen's Gate, Kensington Gardens",
    "Lat": 51.501715437387,
    "Long": -0.1798541843891
  },
  "351": {
    "ID": 351,
    "Name": "Macclesfield Rd, St Lukes",
    "Lat": 51.529423,
    "Long": -0.097122
  },
  "352": {
    "ID": 352,
    "Name": "Vauxhall Street, Vauxhall",
    "Lat": 51.486965,
    "Long": -0.116625
  },
  "353": {
    "ID": 353,
    "Name": "Greycoat Street , Westminster",
    "Lat": 51.49459148,
    "Long": -0.134234258
  },
  "354": {
    "ID": 354,
    "Name": "Northumberland Avenue, Strand",
    "Lat": 51.506767,
    "Long": -0.123702
  },
  "355": {
    "ID": 355,
    "Name": "Oval Way, Vauxhall",
    "Lat": 51.486575,
    "Long": -0.117286
  },
  "356": {
    "ID": 356,
    "Name": "South Kensington Station, South Kensington",
    "Lat": 51.494412,
    "Long": -0.173881
  },
  "357": {
    "ID": 357,
    "Name": "Howland Street, Fitzrovia",
    "Lat": 51.520994,
    "Long": -0.139016
  },
  "358": {
    "ID": 358,
    "Name": "High Holborn , Covent Garden",
    "Lat": 51.516226,
    "Long": -0.124826
  },
  "359": {
    "ID": 359,
    "Name": "Butler Place, Westminster",
    "Lat": 51.49782999,
    "Long": -0.135440826
  },
  "360": {
    "ID": 360,
    "Name": "Howick Place, Westminster",
    "Lat": 51.49675303,
    "Long": -0.138733562
  },
  "361": {
    "ID": 361,
    "Name": "Waterloo Station 2, Waterloo",
    "Lat": 51.50391973,
    "Long": -0.11342629
  },
  "362": {
    "ID": 362,
    "Name": "Royal College Street, Camden Town",
    "Lat": 51.536264,
    "Long": -0.133952
  },
  "363": {
    "ID": 363,
    "Name": "Lord's, St. John's Wood",
    "Lat": 51.52912120089,
    "Long": -0.171185284853
  },
  "364": {
    "ID": 364,
    "Name": "Alfred Place, Bloomsbury",
    "Lat": 51.519656,
    "Long": -0.132339
  },
  "365": {
    "ID": 365,
    "Name": "City Road, Angel",
    "Lat": 51.530344,
    "Long": -0.100168
  },
  "366": {
    "ID": 366,
    "Name": "Millennium Hotel, Mayfair",
    "Lat": 51.510919296649,
    "Long": -0.1511263847351
  },
  "367": {
    "ID": 367,
    "Name": "Harrowby Street, Marylebone",
    "Lat": 51.5173721,
    "Long": -0.1642075
  },
  "368": {
    "ID": 368,
    "Name": "Harriet Street, Knightsbridge",
    "Lat": 51.50024195,
    "Long": -0.15934065
  },
  "370": {
    "ID": 370,
    "Name": "Paddington Green, Paddington",
    "Lat": 51.520205,
    "Long": -0.174593
  },
  "371": {
    "ID": 371,
    "Name": "King Edward Walk, Waterloo",
    "Lat": 51.49775,
    "Long": -0.10988
  },
  "372": {
    "ID": 372,
    "Name": "Sardinia Street, Holborn",
    "Lat": 51.515208,
    "Long": -0.117863
  },
  "373": {
    "ID": 373,
    "Name": "Prince Consort Road, Knightsbridge",
    "Lat": 51.49980661,
    "Long": -0.176415994
  },
  "374": {
    "ID": 374,
    "Name": "Waterloo Station 1, Waterloo",
    "Lat": 51.50402794,
    "Long": -0.11386436
  },
  "375": {
    "ID": 375,
    "Name": "Kensington Town Hall, Kensington",
    "Lat": 51.50194596,
    "Long": -0.194392952
  },
  "376": {
    "ID": 376,
    "Name": "Millbank Tower, Pimlico",
    "Lat": 51.49188409,
    "Long": -0.125674815
  },
  "377": {
    "ID": 377,
    "Name": "Waterloo Bridge, South Bank",
    "Lat": 51.50535447,
    "Long": -0.113656543
  },
  "378": {
    "ID": 378,
    "Name": "Natural History Museum, South Kensington",
    "Lat": 51.49559291,
    "Long": -0.179077626
  },
  "379": {
    "ID": 379,
    "Name": "Turquoise Island, Notting Hill",
    "Lat": 51.51431171,
    "Long": -0.200838199
  },
  "380": {
    "ID": 380,
    "Name": "Stanhope Gate, Mayfair",
    "Lat": 51.50686435,
    "Long": -0.150666888
  },
  "381": {
    "ID": 381,
    "Name": "Charlotte Street, Fitzrovia",
    "Lat": 51.51953043,
    "Long": -0.13577731
  },
  "382": {
    "ID": 382,
    "Name": "Farm Street, Mayfair",
    "Lat": 51.50935171,
    "Long": -0.14744969
  },
  "383": {
    "ID": 383,
    "Name": "Frith Street, Soho",
    "Lat": 51.51310333,
    "Long": -0.13121385
  },
  "384": {
    "ID": 384,
    "Name": "Marloes Road, Kensington",
    "Lat": 51.496481,
    "Long": -0.192404
  },
  "386": {
    "ID": 386,
    "Name": "Moor Street, Soho",
    "Lat": 51.51352755,
    "Long": -0.130110822
  },
  "387": {
    "ID": 387,
    "Name": "Fire Brigade Pier, Vauxhall",
    "Lat": 51.49369988,
    "Long": -0.121394101
  },
  "388": {
    "ID": 388,
    "Name": "Southampton Street, Strand",
    "Lat": 51.51070161,
    "Long": -0.121723604
  },
  "389": {
    "ID": 389,
    "Name": "Upper Grosvenor Street, Mayfair",
    "Lat": 51.51013066,
    "Long": -0.155757901
  },
  "390": {
    "ID": 390,
    "Name": "Buxton Street 1, Shoreditch",
    "Lat": 51.521776,
    "Long": -0.068856
  },
  "392": {
    "ID": 392,
    "Name": "Imperial College, Knightsbridge",
    "Lat": 51.49942855,
    "Long": -0.179702476
  },
  "393": {
    "ID": 393,
    "Name": "Snow Hill, Farringdon",
    "Lat": 51.51733427,
    "Long": -0.103604248
  },
  "394": {
    "ID": 394,
    "Name": "Aberdeen Place, St. John's Wood",
    "Lat": 51.524826,
    "Long": -0.176268
  },
  "395": {
    "ID": 395,
    "Name": "Cadogan Gardens, Chelsea",
    "Lat": 51.492462,
    "Long": -0.159919
  },
  "396": {
    "ID": 396,
    "Name": "Shouldham Street, Marylebone",
    "Lat": 51.51809,
    "Long": -0.163609
  },
  "397": {
    "ID": 397,
    "Name": "Devonshire Terrace, Bayswater",
    "Lat": 51.51348,
    "Long": -0.17977
  },
  "398": {
    "ID": 398,
    "Name": "Holland Park, Kensington",
    "Lat": 51.502319,
    "Long": -0.200742
  },
  "399": {
    "ID": 399,
    "Name": "Brick Lane Market, Shoreditch",
    "Lat": 51.52261762,
    "Long": -0.071653961
  },
  "400": {
    "ID": 400,
    "Name": "George Street, Marylebone",
    "Lat": 51.517703,
    "Long": -0.154106
  },
  "401": {
    "ID": 401,
    "Name": "Columbia Road, Shoreditch",
    "Lat": 51.528187,
    "Long": -0.075375
  },
  "402": {
    "ID": 402,
    "Name": "Penfold Street, Marylebone",
    "Lat": 51.52289229,
    "Long": -0.171681991
  },
  "403": {
    "ID": 403,
    "Name": "George Place Mews, Marylebone",
    "Lat": 51.51689296,
    "Long": -0.158249929
  },
  "404": {
    "ID": 404,
    "Name": "Palace Gate, Kensington Gardens",
    "Lat": 51.50204238,
    "Long": -0.184400221
  },
  "405": {
    "ID": 405,
    "Name": "Gloucester Road Station, South Kensington",
    "Lat": 51.49418566,
    "Long": -0.18267094
  },
  "408": {
    "ID": 408,
    "Name": "Paddington Green Police Station, Paddington",
    "Lat": 51.51994326,
    "Long": -0.170704337
  },
  "409": {
    "ID": 409,
    "Name": "Strata, Elephant & Castle",
    "Lat": 51.493146,
    "Long": -0.099828
  },
  "410": {
    "ID": 410,
    "Name": "Edgware Road Station, Marylebone",
    "Lat": 51.519968,
    "Long": -0.169774
  },
  "411": {
    "ID": 411,
    "Name": "Walworth Road, Elephant & Castle",
    "Lat": 51.49337264,
    "Long": -0.09968067
  },
  "412": {
    "ID": 412,
    "Name": "Cleaver Street, Kennington",
    "Lat": 51.488105,
    "Long": -0.110121
  },
  "419": {
    "ID": 419,
    "Name": "Chelsea Bridge, Pimlico",
    "Lat": 51.485821,
    "Long": -0.149004
  },
  "420": {
    "ID": 420,
    "Name": "Southwark Station 1, Southwark",
    "Lat": 51.504043,
    "Long": -0.105312
  },
  "421": {
    "ID": 421,
    "Name": "Southwark Station 2, Southwark",
    "Lat": 51.504044,
    "Long": -0.104778
  },
  "423": {
    "ID": 423,
    "Name": "Eaton Square (South), Belgravia",
    "Lat": 51.49456127,
    "Long": -0.15393398
  },
  "424": {
    "ID": 424,
    "Name": "Ebury Bridge, Pimlico",
    "Lat": 51.490491,
    "Long": -0.149186
  },
  "425": {
    "ID": 425,
    "Name": "Harrington Square 2, Camden Town",
    "Lat": 51.533379,
    "Long": -0.139159
  },
  "426": {
    "ID": 426,
    "Name": "Vincent Street, Pimlico",
    "Lat": 51.493072,
    "Long": -0.129925
  },
  "427": {
    "ID": 427,
    "Name": "Cheapside, Bank",
    "Lat": 51.51397065,
    "Long": -0.09294031
  },
  "428": {
    "ID": 428,
    "Name": "Exhibition Road, Knightsbridge",
    "Lat": 51.499917,
    "Long": -0.174554
  },
  "430": {
    "ID": 430,
    "Name": "South Parade, Chelsea",
    "Lat": 51.48902,
    "Long": -0.17524
  },
  "431": {
    "ID": 431,
    "Name": "Crinan Street, King's Cross",
    "Lat": 51.534474,
    "Long": -0.122203
  },
  "432": {
    "ID": 432,
    "Name": "Exhibition Road Museums, South Kensington",
    "Lat": 51.496957,
    "Long": -0.173894
  },
  "433": {
    "ID": 433,
    "Name": "Wren Street, Holborn",
    "Lat": 51.524564,
    "Long": -0.116279
  },
  "435": {
    "ID": 435,
    "Name": "Kennington Station, Kennington",
    "Lat": 51.488852,
    "Long": -0.105593
  },
  "436": {
    "ID": 436,
    "Name": "Red Lion Street, Holborn",
    "Lat": 51.51824,
    "Long": -0.11655
  },
  "437": {
    "ID": 437,
    "Name": "Vauxhall Walk, Vauxhall",
    "Lat": 51.488124,
    "Long": -0.120903
  },
  "439": {
    "ID": 439,
    "Name": "Killick Street, King's Cross",
    "Lat": 51.5338,
    "Long": -0.118677
  },
  "440": {
    "ID": 440,
    "Name": "Kennington Oval, Oval",
    "Lat": 51.483145,
    "Long": -0.113134
  },
  "441": {
    "ID": 441,
    "Name": "Sail Street, Vauxhall",
    "Lat": 51.495656,
    "Long": -0.114605
  },
  "442": {
    "ID": 442,
    "Name": "Walmer Road, Avondale",
    "Lat": 51.510101,
    "Long": -0.211358
  },
  "443": {
    "ID": 443,
    "Name": "Philpot Street, Whitechapel",
    "Lat": 51.515256,
    "Long": -0.058641
  },
  "444": {
    "ID": 444,
    "Name": "Bethnal Green Garden, Bethnal Green",
    "Lat": 51.52568,
    "Long": -0.055312
  },
  "445": {
    "ID": 445,
    "Name": "Cheshire Street, Bethnal Green",
    "Lat": 51.52388,
    "Long": -0.065076
  },
  "446": {
    "ID": 446,
    "Name": "York Hall, Bethnal Green",
    "Lat": 51.528936,
    "Long": -0.055894
  },
  "447": {
    "ID": 447,
    "Name": "Jubilee Crescent, Cubitt Town",
    "Lat": 51.493381,
    "Long": -0.007542
  },
  "448": {
    "ID": 448,
    "Name": "Fisherman's Walk West, Canary Wharf",
    "Lat": 51.50623,
    "Long": -0.02296
  },
  "449": {
    "ID": 449,
    "Name": "Shadwell Station, Shadwell",
    "Lat": 51.511088,
    "Long": -0.057159
  },
  "450": {
    "ID": 450,
    "Name": "Jubilee Street, Stepney",
    "Lat": 51.515975,
    "Long": -0.053177
  },
  "451": {
    "ID": 451,
    "Name": "Hermitage Court, Wapping",
    "Lat": 51.504719,
    "Long": -0.063531
  },
  "452": {
    "ID": 452,
    "Name": "St. Katharine's Way, Tower",
    "Lat": 51.505697,
    "Long": -0.070542
  },
  "453": {
    "ID": 453,
    "Name": "Garnet Street, Shadwell",
    "Lat": 51.508447,
    "Long": -0.055167
  },
  "454": {
    "ID": 454,
    "Name": "Napier Avenue, Millwall",
    "Lat": 51.487679,
    "Long": -0.021582
  },
  "455": {
    "ID": 455,
    "Name": "East Ferry Road, Cubitt Town",
    "Lat": 51.49447,
    "Long": -0.014409
  },
  "456": {
    "ID": 456,
    "Name": "Parkway, Camden Town",
    "Lat": 51.538071,
    "Long": -0.144664
  },
  "457": {
    "ID": 457,
    "Name": "Castlehaven Road, Camden Town",
    "Lat": 51.542138,
    "Long": -0.145393
  },
  "458": {
    "ID": 458,
    "Name": "Wapping Lane, Wapping",
    "Lat": 51.504749,
    "Long": -0.057544
  },
  "459": {
    "ID": 459,
    "Name": "Gunmakers Lane, Old Ford",
    "Lat": 51.535179,
    "Long": -0.03338
  },
  "460": {
    "ID": 460,
    "Name": "Burdett Road, Mile End",
    "Lat": 51.516196,
    "Long": -0.029138
  },
  "461": {
    "ID": 461,
    "Name": "Aston Street, Stepney",
    "Lat": 51.516,
    "Long": -0.038775
  },
  "462": {
    "ID": 462,
    "Name": "Bonny Street, Camden Town",
    "Lat": 51.541603,
    "Long": -0.138853
  },
  "463": {
    "ID": 463,
    "Name": "Thurtle Road, Haggerston",
    "Lat": 51.534776,
    "Long": -0.071881
  },
  "464": {
    "ID": 464,
    "Name": "St. Mary & St. Michael Church, Stepney",
    "Lat": 51.51417,
    "Long": -0.052099
  },
  "465": {
    "ID": 465,
    "Name": "Pitfield Street North,Hoxton",
    "Lat": 51.53558,
    "Long": -0.08249
  },
  "466": {
    "ID": 466,
    "Name": "Whiston Road, Haggerston",
    "Lat": 51.534464,
    "Long": -0.076341
  },
  "467": {
    "ID": 467,
    "Name": "Southern Grove, Bow",
    "Lat": 51.523538,
    "Long": -0.030556
  },
  "468": {
    "ID": 468,
    "Name": "Cantrell Road, Bow",
    "Lat": 51.521564,
    "Long": -0.022694
  },
  "469": {
    "ID": 469,
    "Name": "Lindfield Street, Poplar",
    "Lat": 51.513757,
    "Long": -0.020467
  },
  "470": {
    "ID": 470,
    "Name": "Mostyn Grove, Bow",
    "Lat": 51.530535,
    "Long": -0.025492
  },
  "471": {
    "ID": 471,
    "Name": "Hewison Street, Old Ford",
    "Lat": 51.533283,
    "Long": -0.028155
  },
  "472": {
    "ID": 472,
    "Name": "Malmesbury Road, Bow",
    "Lat": 51.529452,
    "Long": -0.027616
  },
  "473": {
    "ID": 473,
    "Name": "Millharbour, Millwall",
    "Lat": 51.496137,
    "Long": -0.019355
  },
  "474": {
    "ID": 474,
    "Name": "Castalia Square, Cubitt Town",
    "Lat": 51.498125,
    "Long": -0.011457
  },
  "475": {
    "ID": 475,
    "Name": "Lightermans Road, Millwall",
    "Lat": 51.499041,
    "Long": -0.020157
  },
  "476": {
    "ID": 476,
    "Name": "Stebondale Street, Cubitt Town",
    "Lat": 51.489096,
    "Long": -0.009205
  },
  "477": {
    "ID": 477,
    "Name": "Spindrift Avenue, Millwall",
    "Lat": 51.49109,
    "Long": -0.018716
  },
  "478": {
    "ID": 478,
    "Name": "Stepney Green Station, Stepney",
    "Lat": 51.521889,
    "Long": -0.04667
  },
  "479": {
    "ID": 479,
    "Name": "Pott Street, Bethnal Green",
    "Lat": 51.527152,
    "Long": -0.058005
  },
  "480": {
    "ID": 480,
    "Name": "Flamborough Street, Limehouse",
    "Lat": 51.5128711,
    "Long": -0.0389866
  },
  "481": {
    "ID": 481,
    "Name": "Saunders Ness Road, Cubitt Town",
    "Lat": 51.487129,
    "Long": -0.009001
  },
  "483": {
    "ID": 483,
    "Name": "Albert Gardens, Stepney",
    "Lat": 51.51328,
    "Long": -0.047784
  },
  "484": {
    "ID": 484,
    "Name": "Bromley High Street, Bow",
    "Lat": 51.528828,
    "Long": -0.013258
  },
  "485": {
    "ID": 485,
    "Name": "Old Ford Road, Bethnal Green",
    "Lat": 51.531127,
    "Long": -0.048017
  },
  "486": {
    "ID": 486,
    "Name": "Granby Street, Shoreditch",
    "Lat": 51.525645,
    "Long": -0.069543
  },
  "487": {
    "ID": 487,
    "Name": "Canton Street, Poplar",
    "Lat": 51.511811,
    "Long": -0.025626
  },
  "488": {
    "ID": 488,
    "Name": "Reardon Street, Wapping",
    "Lat": 51.506946,
    "Long": -0.058681
  },
  "489": {
    "ID": 489,
    "Name": "Christian Street, Whitechapel",
    "Lat": 51.513074,
    "Long": -0.064094
  },
  "490": {
    "ID": 490,
    "Name": "Pennington Street, Wapping",
    "Lat": 51.508622,
    "Long": -0.065006
  },
  "491": {
    "ID": 491,
    "Name": "Queen Mary's, Mile End",
    "Lat": 51.522507,
    "Long": -0.041378
  },
  "492": {
    "ID": 492,
    "Name": "The Green Bridge, Mile End",
    "Lat": 51.524677,
    "Long": -0.03562
  },
  "494": {
    "ID": 494,
    "Name": "South Quay East, Canary Wharf",
    "Lat": 51.50196,
    "Long": -0.016251
  },
  "495": {
    "ID": 495,
    "Name": "Bow Church Station, Bow",
    "Lat": 51.528169,
    "Long": -0.018703
  },
  "496": {
    "ID": 496,
    "Name": "Devons Road, Bow",
    "Lat": 51.52512,
    "Long": -0.015578
  },
  "497": {
    "ID": 497,
    "Name": "Merchant Street, Bow",
    "Lat": 51.526177,
    "Long": -0.0274677
  },
  "498": {
    "ID": 498,
    "Name": "Bow Road Station, Bow",
    "Lat": 51.527058,
    "Long": -0.025296
  },
  "499": {
    "ID": 499,
    "Name": "Furze Green, Bow",
    "Lat": 51.519265,
    "Long": -0.021345
  },
  "500": {
    "ID": 500,
    "Name": "Ansell House, Stepney",
    "Lat": 51.519806,
    "Long": -0.055731
  },
  "501": {
    "ID": 501,
    "Name": "Cephas Street, Bethnal Green",
    "Lat": 51.522561,
    "Long": -0.054883
  },
  "503": {
    "ID": 503,
    "Name": "Cleveland Way, Stepney",
    "Lat": 51.520893,
    "Long": -0.051394
  },
  "504": {
    "ID": 504,
    "Name": "St. John's Park, Cubitt Town",
    "Lat": 51.496454,
    "Long": -0.009506
  },
  "505": {
    "ID": 505,
    "Name": "Ackroyd Drive, Bow",
    "Lat": 51.520398,
    "Long": -0.026768
  },
  "506": {
    "ID": 506,
    "Name": "Bell Lane, Liverpool Street",
    "Lat": 51.517475,
    "Long": -0.075855
  },
  "507": {
    "ID": 507,
    "Name": "Clarkson Street, Bethnal Green",
    "Lat": 51.528692,
    "Long": -0.059091
  },
  "508": {
    "ID": 508,
    "Name": "Fournier Street, Whitechapel",
    "Lat": 51.519362,
    "Long": -0.074431
  },
  "509": {
    "ID": 509,
    "Name": "Fore Street, Guildhall",
    "Lat": 51.517842,
    "Long": -0.090075
  },
  "510": {
    "ID": 510,
    "Name": "Westferry DLR, Limehouse",
    "Lat": 51.509303,
    "Long": -0.025996
  },
  "511": {
    "ID": 511,
    "Name": "Sutton Street, Shadwell",
    "Lat": 51.511066,
    "Long": -0.053558
  },
  "512": {
    "ID": 512,
    "Name": "Pritchard's Road, Bethnal Green",
    "Lat": 51.532091,
    "Long": -0.06142
  },
  "513": {
    "ID": 513,
    "Name": "Watney Market, Stepney",
    "Lat": 51.5142228,
    "Long": -0.055656
  },
  "514": {
    "ID": 514,
    "Name": "Portman Square, Marylebone",
    "Lat": 51.516204,
    "Long": -0.155525
  },
  "515": {
    "ID": 515,
    "Name": "Russell Gardens, Olympia",
    "Lat": 51.500088,
    "Long": -0.211316
  },
  "516": {
    "ID": 516,
    "Name": "Chrisp Street Market, Poplar",
    "Lat": 51.5112,
    "Long": -0.014438
  },
  "517": {
    "ID": 517,
    "Name": "Ford Road, Old Ford",
    "Lat": 51.532513,
    "Long": -0.033085
  },
  "518": {
    "ID": 518,
    "Name": "Antill Road, Mile End",
    "Lat": 51.528224,
    "Long": -0.037471
  },
  "519": {
    "ID": 519,
    "Name": "Teviot Street, Poplar",
    "Lat": 51.518811,
    "Long": -0.011662
  },
  "520": {
    "ID": 520,
    "Name": "Bancroft Road, Bethnal Green",
    "Lat": 51.526041,
    "Long": -0.047218
  },
  "521": {
    "ID": 521,
    "Name": "Driffield Road, Old Ford",
    "Lat": 51.534137,
    "Long": -0.037366
  },
  "522": {
    "ID": 522,
    "Name": "Clinton Road, Mile End",
    "Lat": 51.525941,
    "Long": -0.036017
  },
  "523": {
    "ID": 523,
    "Name": "Langdon Park, Poplar",
    "Lat": 51.51549,
    "Long": -0.013475
  },
  "524": {
    "ID": 524,
    "Name": "Lancaster Gate , Bayswater",
    "Lat": 51.511654,
    "Long": -0.179668
  },
  "526": {
    "ID": 526,
    "Name": "Lancaster Drive, Blackwall",
    "Lat": 51.503143,
    "Long": -0.008428
  },
  "527": {
    "ID": 527,
    "Name": "Hansard Mews, Holland Park",
    "Lat": 51.503802,
    "Long": -0.215808
  },
  "528": {
    "ID": 528,
    "Name": "Clarges Street, Mayfair",
    "Lat": 51.507326,
    "Long": -0.145827
  },
  "529": {
    "ID": 529,
    "Name": "Manresa Road, Chelsea",
    "Lat": 51.486892,
    "Long": -0.170983
  },
  "530": {
    "ID": 530,
    "Name": "Newby Place, Poplar",
    "Lat": 51.508896,
    "Long": -0.012413
  },
  "531": {
    "ID": 531,
    "Name": "Twig Folly Bridge, Mile End",
    "Lat": 51.530326,
    "Long": -0.042744
  },
  "532": {
    "ID": 532,
    "Name": "Jubilee Plaza, Canary Wharf",
    "Lat": 51.50357,
    "Long": -0.020068
  },
  "533": {
    "ID": 533,
    "Name": "Wellington Row, Bethnal Green",
    "Lat": 51.528222,
    "Long": -0.069743
  },
  "534": {
    "ID": 534,
    "Name": "Goldsmith's Row, Haggerston",
    "Lat": 51.531864,
    "Long": -0.066035
  },
  "535": {
    "ID": 535,
    "Name": "Gloucester Avenue, Camden Town",
    "Lat": 51.537349,
    "Long": -0.147154
  },
  "536": {
    "ID": 536,
    "Name": "Queensbridge Road, Haggerston",
    "Lat": 51.53385,
    "Long": -0.06992
  },
  "537": {
    "ID": 537,
    "Name": "Old Montague Street, Whitechapel",
    "Lat": 51.51793,
    "Long": -0.067937
  },
  "538": {
    "ID": 538,
    "Name": "Naval Row, Blackwall",
    "Lat": 51.508981,
    "Long": -0.00699
  },
  "539": {
    "ID": 539,
    "Name": "Hoxton Station, Hoxton",
    "Lat": 51.531091,
    "Long": -0.075901
  },
  "540": {
    "ID": 540,
    "Name": "Albany Street, The Regent's Park",
    "Lat": 51.528302,
    "Long": -0.144466
  },
  "541": {
    "ID": 541,
    "Name": "Green Park Station, Mayfair",
    "Lat": 51.506613,
    "Long": -0.142844
  },
  "542": {
    "ID": 542,
    "Name": "Salmon Lane, Limehouse",
    "Lat": 51.514115,
    "Long": -0.033828
  },
  "543": {
    "ID": 543,
    "Name": "Lansdowne Walk, Ladbroke Grove",
    "Lat": 51.509591,
    "Long": -0.204666
  },
  "544": {
    "ID": 544,
    "Name": "Percival Street, Finsbury",
    "Lat": 51.526153,
    "Long": -0.102208
  },
  "545": {
    "ID": 545,
    "Name": "Arlington Road, Camden Town",
    "Lat": 51.539957,
    "Long": -0.145246
  },
  "546": {
    "ID": 546,
    "Name": "New Fetter Lane, Holborn",
    "Lat": 51.517428,
    "Long": -0.107987
  },
  "547": {
    "ID": 547,
    "Name": "East India DLR, Blackwall",
    "Lat": 51.509474,
    "Long": -0.002275
  },
  "548": {
    "ID": 548,
    "Name": "Westminster Bridge Road, Elephant & Castle",
    "Lat": 51.498386,
    "Long": -0.107913
  },
  "549": {
    "ID": 549,
    "Name": "Gaywood  Street, Elephant & Castle",
    "Lat": 51.49605,
    "Long": -0.104193
  },
  "550": {
    "ID": 550,
    "Name": "Harford Street, Mile End",
    "Lat": 51.521564,
    "Long": -0.039264
  },
  "551": {
    "ID": 551,
    "Name": "Import Dock, Canary Wharf",
    "Lat": 51.505772,
    "Long": -0.016460175
  },
  "552": {
    "ID": 552,
    "Name": "Watney Street, Shadwell",
    "Lat": 51.511542,
    "Long": -0.056667
  },
  "553": {
    "ID": 553,
    "Name": "Regent's Row , Haggerston ",
    "Lat": 51.535678,
    "Long": -0.062546
  },
  "554": {
    "ID": 554,
    "Name": "Aberfeldy Street, Poplar",
    "Lat": 51.513548,
    "Long": -0.005659
  },
  "556": {
    "ID": 556,
    "Name": "Heron Quays DLR, Canary Wharf",
    "Lat": 51.502661,
    "Long": -0.021596
  },
  "557": {
    "ID": 557,
    "Name": "King Edward Street, St Pauls",
    "Lat": 51.51601,
    "Long": -0.0985
  },
  "558": {
    "ID": 558,
    "Name": "Page Street, Westminster",
    "Lat": 51.493978,
    "Long": -0.127554
  },
  "559": {
    "ID": 559,
    "Name": "Abbotsbury Road, Holland Park",
    "Lat": 51.501391,
    "Long": -0.205991
  },
  "560": {
    "ID": 560,
    "Name": "Ladbroke Grove Central, Ladbroke Grove",
    "Lat": 51.511624,
    "Long": -0.205921
  },
  "561": {
    "ID": 561,
    "Name": "Rectory Square, Stepney",
    "Lat": 51.518369,
    "Long": -0.043371
  },
  "562": {
    "ID": 562,
    "Name": "Bury Place, Holborn",
    "Lat": 51.51746,
    "Long": -0.12335
  },
  "563": {
    "ID": 563,
    "Name": "Preston's Road, Cubitt Town",
    "Lat": 51.499286,
    "Long": -0.009152
  },
  "564": {
    "ID": 564,
    "Name": "Somerset House, Strand",
    "Lat": 51.509943,
    "Long": -0.117619
  },
  "565": {
    "ID": 565,
    "Name": "Selby Street, Whitechapel",
    "Lat": 51.521905,
    "Long": -0.063386
  },
  "566": {
    "ID": 566,
    "Name": "Westfield Ariel Way, White City",
    "Lat": 51.509158,
    "Long": -0.224103
  },
  "568": {
    "ID": 568,
    "Name": "Bishop's Bridge Road West, Bayswater",
    "Lat": 51.51616,
    "Long": -0.18697
  },
  "569": {
    "ID": 569,
    "Name": "Pitfield Street Central, Hoxton",
    "Lat": 51.53213,
    "Long": -0.08299
  },
  "570": {
    "ID": 570,
    "Name": "Upper Bank Street, Canary Wharf",
    "Lat": 51.503083,
    "Long": -0.017676
  },
  "571": {
    "ID": 571,
    "Name": "Westfield Southern Terrace ,Shepherd's Bush",
    "Lat": 51.506256,
    "Long": -0.218337
  },
  "572": {
    "ID": 572,
    "Name": "Greenland Road, Camden Town",
    "Lat": 51.539099,
    "Long": -0.141728
  },
  "573": {
    "ID": 573,
    "Name": "Limerston Street, West Chelsea",
    "Lat": 51.485587,
    "Long": -0.18119
  },
  "574": {
    "ID": 574,
    "Name": "Eagle Wharf Road, Hoxton",
    "Lat": 51.53356,
    "Long": -0.09315
  },
  "576": {
    "ID": 576,
    "Name": "Alpha Grove, Millwall",
    "Lat": 51.497304,
    "Long": -0.022793
  },
  "577": {
    "ID": 577,
    "Name": "Globe Town Market, Bethnal Green",
    "Lat": 51.528869,
    "Long": -0.047548
  },
  "578": {
    "ID": 578,
    "Name": "Hollybush Gardens, Bethnal Green",
    "Lat": 51.527607,
    "Long": -0.057133
  },
  "579": {
    "ID": 579,
    "Name": "Queen Street 2, Bank",
    "Lat": 51.511246,
    "Long": -0.093051
  },
  "580": {
    "ID": 580,
    "Name": "Doddington Grove, Kennington",
    "Lat": 51.48692917,
    "Long": -0.102996299
  },
  "581": {
    "ID": 581,
    "Name": "New Cavendish Street, Marylebone",
    "Lat": 51.519167,
    "Long": -0.147983
  },
  "583": {
    "ID": 583,
    "Name": "Abingdon Green, Westminster",
    "Lat": 51.497622,
    "Long": -0.125978
  },
  "584": {
    "ID": 584,
    "Name": "Ilchester Gardens, Bayswater",
    "Lat": 51.51244,
    "Long": -0.19096
  },
  "586": {
    "ID": 586,
    "Name": "Mudchute DLR, Cubitt Town",
    "Lat": 51.490645,
    "Long": -0.014582
  },
  "587": {
    "ID": 587,
    "Name": "Monument Street, Monument",
    "Lat": 51.50964,
    "Long": -0.08497
  },
  "588": {
    "ID": 588,
    "Name": "Hoxton Street, Hoxton",
    "Lat": 51.52959,
    "Long": -0.0801
  },
  "589": {
    "ID": 589,
    "Name": "Drayton Gardens, West Chelsea",
    "Lat": 51.487196,
    "Long": -0.179369
  },
  "590": {
    "ID": 590,
    "Name": "Greenberry Street, St.John's Wood",
    "Lat": 51.53256,
    "Long": -0.16862
  },
  "591": {
    "ID": 591,
    "Name": "Westfield Library Corner, Shepherd's Bush",
    "Lat": 51.506093,
    "Long": -0.2242237
  },
  "592": {
    "ID": 592,
    "Name": "Bishop's Bridge Road East, Bayswater",
    "Lat": 51.5171,
    "Long": -0.18377
  },
  "593": {
    "ID": 593,
    "Name": "Northdown Street, King's Cross",
    "Lat": 51.531066,
    "Long": -0.11934
  },
  "594": {
    "ID": 594,
    "Name": "Kingsway Southbound, Strand",
    "Lat": 51.513875,
    "Long": -0.117774
  },
  "595": {
    "ID": 595,
    "Name": "Hammersmith Road, Hammersmith",
    "Lat": 51.493267,
    "Long": -0.21985
  },
  "596": {
    "ID": 596,
    "Name": "Parson's Green , Parson's Green",
    "Lat": 51.472817,
    "Long": -0.199783
  },
  "597": {
    "ID": 597,
    "Name": "Fulham Park Road, Fulham",
    "Lat": 51.473471,
    "Long": -0.20782
  },
  "598": {
    "ID": 598,
    "Name": "Southerton Road, Hammersmith",
    "Lat": 51.494499,
    "Long": -0.228188
  },
  "599": {
    "ID": 599,
    "Name": "Manbre Road, Hammersmith",
    "Lat": 51.485743,
    "Long": -0.223616
  },
  "600": {
    "ID": 600,
    "Name": "South Lambeth Road, Vauxhall",
    "Lat": 51.481747,
    "Long": -0.124642
  },
  "601": {
    "ID": 601,
    "Name": "BBC White City, White City",
    "Lat": 51.514767,
    "Long": -0.225787
  },
  "602": {
    "ID": 602,
    "Name": "Union Grove, Wandsworth Road",
    "Lat": 51.472993,
    "Long": -0.133972
  },
  "603": {
    "ID": 603,
    "Name": "Caldwell Street, Stockwell",
    "Lat": 51.477839,
    "Long": -0.116493
  },
  "604": {
    "ID": 604,
    "Name": "St Martins Close, Camden Town",
    "Lat": 51.538792,
    "Long": -0.138535
  },
  "605": {
    "ID": 605,
    "Name": "Seymour Place, Marylebone",
    "Lat": 51.520331,
    "Long": -0.163667
  },
  "606": {
    "ID": 606,
    "Name": "Addison Road, Holland Park",
    "Lat": 51.504199,
    "Long": -0.210941
  },
  "607": {
    "ID": 607,
    "Name": "Putney Bridge Station, Fulham",
    "Lat": 51.468814,
    "Long": -0.210279
  },
  "608": {
    "ID": 608,
    "Name": "Colet Gardens, Hammersmith",
    "Lat": 51.491093,
    "Long": -0.216493
  },
  "609": {
    "ID": 609,
    "Name": "Sugden Road, Clapham",
    "Lat": 51.46512358,
    "Long": -0.157788279
  },
  "610": {
    "ID": 610,
    "Name": "Danvers Street, West Chelsea",
    "Lat": 51.48256792,
    "Long": -0.172078187
  },
  "611": {
    "ID": 611,
    "Name": "Princedale Road , Holland Park",
    "Lat": 51.50646524,
    "Long": -0.208486599
  },
  "612": {
    "ID": 612,
    "Name": "Wandsworth Rd, Isley Court, Wandsworth Road",
    "Lat": 51.46925984,
    "Long": -0.141812513
  },
  "613": {
    "ID": 613,
    "Name": "Woodstock Grove, Shepherd's Bush",
    "Lat": 51.50403821,
    "Long": -0.217400093
  },
  "614": {
    "ID": 614,
    "Name": "Bradmead, Battersea Park",
    "Lat": 51.47817208,
    "Long": -0.144690541
  },
  "615": {
    "ID": 615,
    "Name": "Finlay Street, Fulham",
    "Lat": 51.4768851,
    "Long": -0.215895601
  },
  "616": {
    "ID": 616,
    "Name": "Aintree Street, Fulham",
    "Lat": 51.48102131,
    "Long": -0.209973497
  },
  "617": {
    "ID": 617,
    "Name": "Elysium Place, Fulham",
    "Lat": 51.47107905,
    "Long": -0.207842908
  },
  "618": {
    "ID": 618,
    "Name": "Eel Brook Common, Walham Green",
    "Lat": 51.47625965,
    "Long": -0.193254007
  },
  "619": {
    "ID": 619,
    "Name": "Irene Road, Parsons Green",
    "Lat": 51.4737636,
    "Long": -0.197010096
  },
  "620": {
    "ID": 620,
    "Name": "Surrey Lane, Battersea",
    "Lat": 51.47518024,
    "Long": -0.167160736
  },
  "621": {
    "ID": 621,
    "Name": "Wandsworth Town Station, Wandsworth",
    "Lat": 51.46086446,
    "Long": -0.187427294
  },
  "622": {
    "ID": 622,
    "Name": "Lansdowne Road, Ladbroke Grove",
    "Lat": 51.50748124,
    "Long": -0.205535908
  },
  "623": {
    "ID": 623,
    "Name": "Nantes Close, Wandsworth",
    "Lat": 51.46193072,
    "Long": -0.180791784
  },
  "624": {
    "ID": 624,
    "Name": "Courland Grove, Wandsworth Road",
    "Lat": 51.4729184,
    "Long": -0.132102704
  },
  "625": {
    "ID": 625,
    "Name": "Queen's Circus, Battersea Park",
    "Lat": 51.47761941,
    "Long": -0.149551631
  },
  "626": {
    "ID": 626,
    "Name": "Normand Park, West Kensington",
    "Lat": 51.48438657,
    "Long": -0.20481514
  },
  "627": {
    "ID": 627,
    "Name": "Holden Street, Battersea",
    "Lat": 51.4687905,
    "Long": -0.158230901
  },
  "628": {
    "ID": 628,
    "Name": "William Morris Way, Sands End",
    "Lat": 51.46881971,
    "Long": -0.184318843
  },
  "629": {
    "ID": 629,
    "Name": "Morie Street, Wandsworth",
    "Lat": 51.45995384,
    "Long": -0.190184054
  },
  "630": {
    "ID": 630,
    "Name": "Clarence Walk, Stockwell",
    "Lat": 51.47073264,
    "Long": -0.126994068
  },
  "631": {
    "ID": 631,
    "Name": "Battersea Park Road, Nine Elms",
    "Lat": 51.4795017,
    "Long": -0.141770709
  },
  "632": {
    "ID": 632,
    "Name": "Sheepcote Lane, Battersea",
    "Lat": 51.47053858,
    "Long": -0.163041605
  },
  "633": {
    "ID": 633,
    "Name": "Vereker Road, West Kensington",
    "Lat": 51.48959104,
    "Long": -0.209378594
  },
  "634": {
    "ID": 634,
    "Name": "Brook Green South, Brook Green",
    "Lat": 51.49434708,
    "Long": -0.215804559
  },
  "635": {
    "ID": 635,
    "Name": "Greyhound Road, Hammersmith",
    "Lat": 51.48606206,
    "Long": -0.214428378
  },
  "636": {
    "ID": 636,
    "Name": "South Park, Sands End",
    "Lat": 51.46706414,
    "Long": -0.193502076
  },
  "637": {
    "ID": 637,
    "Name": "Spencer Park, Wandsworth Common",
    "Lat": 51.45787019,
    "Long": -0.174691623
  },
  "638": {
    "ID": 638,
    "Name": "Falcon Road, Clapham Junction",
    "Lat": 51.46663393,
    "Long": -0.169821175
  },
  "639": {
    "ID": 639,
    "Name": "Coomer Place, West Kensington",
    "Lat": 51.48357068,
    "Long": -0.202038682
  },
  "640": {
    "ID": 640,
    "Name": "Silverthorne Road, Battersea",
    "Lat": 51.47286577,
    "Long": -0.148059277
  },
  "641": {
    "ID": 641,
    "Name": "Archbishop's Park, Waterloo",
    "Lat": 51.49824168,
    "Long": -0.117495865
  },
  "642": {
    "ID": 642,
    "Name": "Fawcett Close, Battersea",
    "Lat": 51.46916161,
    "Long": -0.174485792
  },
  "643": {
    "ID": 643,
    "Name": "All Saints' Road, Portobello",
    "Lat": 51.5190427,
    "Long": -0.204764421
  },
  "644": {
    "ID": 644,
    "Name": "Rainville Road, Hammersmith",
    "Lat": 51.48373225,
    "Long": -0.223852256
  },
  "645": {
    "ID": 645,
    "Name": "Great Suffolk Street, The Borough",
    "Lat": 51.50173215,
    "Long": -0.100292412
  },
  "646": {
    "ID": 646,
    "Name": "Buckingham Gate, Westminster",
    "Lat": 51.49886563,
    "Long": -0.137424571
  },
  "647": {
    "ID": 647,
    "Name": "Richmond Way, Shepherd's Bush",
    "Lat": 51.50035306,
    "Long": -0.217515071
  },
  "648": {
    "ID": 648,
    "Name": "Peterborough Road, Sands End",
    "Lat": 51.46904022,
    "Long": -0.19627483
  },
  "649": {
    "ID": 649,
    "Name": "World's End Place, West Chelsea",
    "Lat": 51.48180515,
    "Long": -0.18027465
  },
  "650": {
    "ID": 650,
    "Name": "St. Mark's Road, North Kensington",
    "Lat": 51.51687069,
    "Long": -0.213872396
  },
  "651": {
    "ID": 651,
    "Name": "Thorndike Close, West Chelsea",
    "Lat": 51.48089844,
    "Long": -0.183853573
  },
  "652": {
    "ID": 652,
    "Name": "Evesham Street, Avondale",
    "Lat": 51.51148696,
    "Long": -0.218190203
  },
  "653": {
    "ID": 653,
    "Name": "Simpson Street, Clapham Junction",
    "Lat": 51.47084722,
    "Long": -0.17070367
  },
  "654": {
    "ID": 654,
    "Name": "Ashmole Estate, Oval",
    "Lat": 51.48267821,
    "Long": -0.117661574
  },
  "655": {
    "ID": 655,
    "Name": "Crabtree Lane, Fulham",
    "Lat": 51.48294452,
    "Long": -0.219346128
  },
  "656": {
    "ID": 656,
    "Name": "Broomhouse Lane, Parsons Green",
    "Lat": 51.46841875,
    "Long": -0.199135704
  },
  "657": {
    "ID": 657,
    "Name": "Blythe Road West, Shepherd's Bush",
    "Lat": 51.4996806,
    "Long": -0.221791552
  },
  "658": {
    "ID": 658,
    "Name": "Ethelburga Estate, Battersea Park",
    "Lat": 51.47729232,
    "Long": -0.16478637
  },
  "660": {
    "ID": 660,
    "Name": "West Kensington Station, West Kensington",
    "Lat": 51.49087074,
    "Long": -0.206029743
  },
  "661": {
    "ID": 661,
    "Name": "All Saints Church, Portobello",
    "Lat": 51.51632095,
    "Long": -0.202608612
  },
  "662": {
    "ID": 662,
    "Name": "Phene Street, Chelsea",
    "Lat": 51.48498496,
    "Long": -0.167919869
  },
  "663": {
    "ID": 663,
    "Name": "Clarendon Road, Avondale",
    "Lat": 51.51323001,
    "Long": -0.211593602
  },
  "664": {
    "ID": 664,
    "Name": "Austin Road, Battersea Park",
    "Lat": 51.474376,
    "Long": -0.155442787
  },
  "665": {
    "ID": 665,
    "Name": "Smugglers Way, Wandsworth",
    "Lat": 51.46108367,
    "Long": -0.191722864
  },
  "666": {
    "ID": 666,
    "Name": "Olympia Way, Olympia",
    "Lat": 51.49610093,
    "Long": -0.208158259
  },
  "667": {
    "ID": 667,
    "Name": "Shepherd's Bush Road North, Shepherd's Bush",
    "Lat": 51.5015946,
    "Long": -0.222293381
  },
  "668": {
    "ID": 668,
    "Name": "Ravenscourt Park Station, Hammersmith",
    "Lat": 51.49422354,
    "Long": -0.236769936
  },
  "669": {
    "ID": 669,
    "Name": "Teversham Lane, Stockwell",
    "Lat": 51.47614939,
    "Long": -0.1232585
  },
  "670": {
    "ID": 670,
    "Name": "Ashley Crescent, Battersea",
    "Lat": 51.46718562,
    "Long": -0.152248582
  },
  "671": {
    "ID": 671,
    "Name": "Parsons Green Station, Parsons Green",
    "Lat": 51.475089,
    "Long": -0.201968
  },
  "673": {
    "ID": 673,
    "Name": "Hibbert Street, Battersea",
    "Lat": 51.46517078,
    "Long": -0.18038939
  },
  "674": {
    "ID": 674,
    "Name": "Carnegie Street, King's Cross",
    "Lat": 51.53546778,
    "Long": -0.11619105
  },
  "675": {
    "ID": 675,
    "Name": "Usk Road, Clapham Junction",
    "Lat": 51.46348914,
    "Long": -0.182126248
  },
  "676": {
    "ID": 676,
    "Name": "Hartington Road, Stockwell",
    "Lat": 51.47787084,
    "Long": -0.126874471
  },
  "677": {
    "ID": 677,
    "Name": "Heath Road, Battersea",
    "Lat": 51.46866929,
    "Long": -0.146544642
  },
  "678": {
    "ID": 678,
    "Name": "Esmond Street, Putney",
    "Lat": 51.46231278,
    "Long": -0.211468596
  },
  "679": {
    "ID": 679,
    "Name": "Orbel Street, Battersea",
    "Lat": 51.47453545,
    "Long": -0.170210533
  },
  "680": {
    "ID": 680,
    "Name": "Westbridge Road, Battersea",
    "Lat": 51.47768469,
    "Long": -0.170329317
  },
  "681": {
    "ID": 681,
    "Name": "Bishop's Avenue, Fulham",
    "Lat": 51.47303687,
    "Long": -0.214749808
  },
  "682": {
    "ID": 682,
    "Name": "Crisp Road, Hammersmith",
    "Lat": 51.48810829,
    "Long": -0.22660621
  },
  "683": {
    "ID": 683,
    "Name": "Dorothy Road, Clapham Junction",
    "Lat": 51.46506424,
    "Long": -0.163750945
  },
  "684": {
    "ID": 684,
    "Name": "Neville Gill Close, Wandsworth",
    "Lat": 51.45475251,
    "Long": -0.195197203
  },
  "685": {
    "ID": 685,
    "Name": "Osiers Road, Wandsworth",
    "Lat": 51.46067005,
    "Long": -0.198735357
  },
  "686": {
    "ID": 686,
    "Name": "Beryl Road, Hammersmith",
    "Lat": 51.48814438,
    "Long": -0.222456468
  },
  "687": {
    "ID": 687,
    "Name": "Maclise Road, Olympia",
    "Lat": 51.49760804,
    "Long": -0.21145598
  },
  "688": {
    "ID": 688,
    "Name": "Northfields, Wandsworth",
    "Lat": 51.46095151,
    "Long": -0.20066766
  },
  "689": {
    "ID": 689,
    "Name": "Spanish Road, Clapham Junction",
    "Lat": 51.45922541,
    "Long": -0.180884959
  },
  "690": {
    "ID": 690,
    "Name": "Stanley Grove, Battersea",
    "Lat": 51.47047503,
    "Long": -0.152130083
  },
  "691": {
    "ID": 691,
    "Name": "Erin Close, Walham Green",
    "Lat": 51.47946386,
    "Long": -0.195777222
  },
  "692": {
    "ID": 692,
    "Name": "Cadogan Close, Victoria Park",
    "Lat": 51.54211855,
    "Long": -0.028941601
  },
  "693": {
    "ID": 693,
    "Name": "Felsham Road, Putney",
    "Lat": 51.464786,
    "Long": -0.215618902
  },
  "694": {
    "ID": 694,
    "Name": "Putney Rail Station, Putney",
    "Lat": 51.46071722,
    "Long": -0.216526155
  },
  "695": {
    "ID": 695,
    "Name": "Islington Green, Angel",
    "Lat": 51.53638435,
    "Long": -0.102757578
  },
  "696": {
    "ID": 696,
    "Name": "Charing Cross Hospital, Hammersmith",
    "Lat": 51.48728535,
    "Long": -0.217995921
  },
  "697": {
    "ID": 697,
    "Name": "Charlotte Terrace, Angel",
    "Lat": 51.53639219,
    "Long": -0.112721065
  },
  "698": {
    "ID": 698,
    "Name": "Shoreditch Court, Haggerston",
    "Lat": 51.53908372,
    "Long": -0.070329419
  },
  "699": {
    "ID": 699,
    "Name": "Belford House, Haggerston",
    "Lat": 51.5366541,
    "Long": -0.07023031
  },
  "700": {
    "ID": 700,
    "Name": "Battersea Church Road, Battersea",
    "Lat": 51.47696496,
    "Long": -0.174347066
  },
  "701": {
    "ID": 701,
    "Name": "Vicarage Crescent, Battersea",
    "Lat": 51.47287627,
    "Long": -0.176267008
  },
  "702": {
    "ID": 702,
    "Name": "Durant Street, Bethnal Green",
    "Lat": 51.52868155,
    "Long": -0.065550321
  },
  "703": {
    "ID": 703,
    "Name": "St. Bride Street, Holborn",
    "Lat": 51.51505991,
    "Long": -0.10534448
  },
  "704": {
    "ID": 704,
    "Name": "Mexfield Road, East Putney",
    "Lat": 51.45682071,
    "Long": -0.202802098
  },
  "706": {
    "ID": 706,
    "Name": "Snowsfields, London Bridge",
    "Lat": 51.50215353,
    "Long": -0.083632928
  },
  "707": {
    "ID": 707,
    "Name": "Barons Court Station, West Kensington",
    "Lat": 51.49021762,
    "Long": -0.215087092
  },
  "708": {
    "ID": 708,
    "Name": "Disraeli Road, Putney",
    "Lat": 51.46161068,
    "Long": -0.21614583
  },
  "709": {
    "ID": 709,
    "Name": "Montserrat Road , Putney",
    "Lat": 51.46321128,
    "Long": -0.215550761
  },
  "710": {
    "ID": 710,
    "Name": "Albert Bridge Road, Battersea Park",
    "Lat": 51.47439218,
    "Long": -0.163347594
  },
  "711": {
    "ID": 711,
    "Name": "Everington Street, Fulham",
    "Lat": 51.48335692,
    "Long": -0.216305546
  },
  "712": {
    "ID": 712,
    "Name": "Mile End Stadium, Mile End",
    "Lat": 51.51854104,
    "Long": -0.034903714
  },
  "713": {
    "ID": 713,
    "Name": "Hawley Crescent, Camden Town",
    "Lat": 51.54100708,
    "Long": -0.14326094
  },
  "714": {
    "ID": 714,
    "Name": "Stewart's Road, Wandsworth Road",
    "Lat": 51.47311696,
    "Long": -0.137235175
  },
  "715": {
    "ID": 715,
    "Name": "Aylward Street, Stepney",
    "Lat": 51.51563007,
    "Long": -0.049067243
  },
  "716": {
    "ID": 716,
    "Name": "Stainsby Road , Poplar",
    "Lat": 51.51542791,
    "Long": -0.02356501
  },
  "717": {
    "ID": 717,
    "Name": "Dunston Road , Haggerston",
    "Lat": 51.53658514,
    "Long": -0.075885686
  },
  "718": {
    "ID": 718,
    "Name": "Ada Street, Hackney Central",
    "Lat": 51.53571683,
    "Long": -0.060291813
  },
  "719": {
    "ID": 719,
    "Name": "Victoria Park Road, Hackney Central",
    "Lat": 51.53642464,
    "Long": -0.054162264
  },
  "720": {
    "ID": 720,
    "Name": "Star Road, West Kensington",
    "Lat": 51.48724429,
    "Long": -0.205279052
  },
  "721": {
    "ID": 721,
    "Name": "Wendon Street, Old Ford",
    "Lat": 51.53603947,
    "Long": -0.026262677
  },
  "722": {
    "ID": 722,
    "Name": "Finnis Street, Bethnal Green",
    "Lat": 51.52458353,
    "Long": -0.058631453
  },
  "723": {
    "ID": 723,
    "Name": "Stephendale Road, Sands End",
    "Lat": 51.46822047,
    "Long": -0.190346493
  },
  "724": {
    "ID": 724,
    "Name": "Alma Road, Wandsworth",
    "Lat": 51.45799126,
    "Long": -0.184806157
  },
  "726": {
    "ID": 726,
    "Name": "Alfreda Street, Battersea Park",
    "Lat": 51.47505096,
    "Long": -0.150908371
  },
  "727": {
    "ID": 727,
    "Name": "Chesilton Road, Fulham",
    "Lat": 51.47569809,
    "Long": -0.20587627
  },
  "728": {
    "ID": 728,
    "Name": "Putney Bridge Road, East Putney",
    "Lat": 51.46199911,
    "Long": -0.206240805
  },
  "729": {
    "ID": 729,
    "Name": "St. Peter's Terrace, Fulham",
    "Lat": 51.47893931,
    "Long": -0.208485293
  },
  "730": {
    "ID": 730,
    "Name": "Bridge Avenue, Hammersmith",
    "Lat": 51.49208492,
    "Long": -0.229116862
  },
  "731": {
    "ID": 731,
    "Name": "Michael Road, Walham Green",
    "Lat": 51.47727637,
    "Long": -0.189210466
  },
  "732": {
    "ID": 732,
    "Name": "Duke Street Hill, London Bridge",
    "Lat": 51.50630441,
    "Long": -0.087262995
  },
  "733": {
    "ID": 733,
    "Name": "Park Lane, Mayfair",
    "Lat": 51.50542628,
    "Long": -0.150817316
  },
  "734": {
    "ID": 734,
    "Name": "Plough Terrace, Clapham Junction",
    "Lat": 51.46230566,
    "Long": -0.175407201
  },
  "735": {
    "ID": 735,
    "Name": "Grant Road East, Clapham Junction",
    "Lat": 51.46489445,
    "Long": -0.17302926
  },
  "736": {
    "ID": 736,
    "Name": "Queensdale Road, Shepherd's Bush",
    "Lat": 51.50659035,
    "Long": -0.216104479
  },
  "737": {
    "ID": 737,
    "Name": "Fulham Broadway, Walham Green",
    "Lat": 51.47993289,
    "Long": -0.19411695
  },
  "739": {
    "ID": 739,
    "Name": "Hortensia Road, West Brompton",
    "Lat": 51.48176572,
    "Long": -0.185273723
  },
  "740": {
    "ID": 740,
    "Name": "Sirdar Road, Avondale",
    "Lat": 51.51092871,
    "Long": -0.214594781
  },
  "741": {
    "ID": 741,
    "Name": "Freston Road, Avondale",
    "Lat": 51.5129814,
    "Long": -0.219486603
  },
  "742": {
    "ID": 742,
    "Name": "Blenheim Crescent, Ladbroke Grove",
    "Lat": 51.51510818,
    "Long": -0.208565479
  },
  "743": {
    "ID": 743,
    "Name": "Oxford Road, Putney",
    "Lat": 51.46079243,
    "Long": -0.212607684
  },
  "744": {
    "ID": 744,
    "Name": "Ingrave Street, Clapham Junction",
    "Lat": 51.46745485,
    "Long": -0.172293499
  },
  "745": {
    "ID": 745,
    "Name": "Upcerne Road, West Chelsea",
    "Lat": 51.47816972,
    "Long": -0.18243547
  },
  "746": {
    "ID": 746,
    "Name": "Lots Road, West Chelsea",
    "Lat": 51.4795738,
    "Long": -0.17903854
  },
  "747": {
    "ID": 747,
    "Name": "Ormonde Gate, Chelsea",
    "Lat": 51.48796408,
    "Long": -0.161765173
  },
  "748": {
    "ID": 748,
    "Name": "Hertford Road, De Beauvoir Town",
    "Lat": 51.53727795,
    "Long": -0.079201849
  },
  "749": {
    "ID": 749,
    "Name": "Haggerston Road, Haggerston ",
    "Lat": 51.53932857,
    "Long": -0.074284675
  },
  "750": {
    "ID": 750,
    "Name": "Culvert Road, Battersea",
    "Lat": 51.4710956,
    "Long": -0.157850096
  },
  "751": {
    "ID": 751,
    "Name": "Newton Street, Covent Garden",
    "Lat": 51.51612862,
    "Long": -0.120909408
  },
  "752": {
    "ID": 752,
    "Name": "Manfred Road, East Putney",
    "Lat": 51.45816465,
    "Long": -0.20600248
  },
  "753": {
    "ID": 753,
    "Name": "Hammersmith Town Hall, Hammersmith",
    "Lat": 51.49263658,
    "Long": -0.234094148
  },
  "754": {
    "ID": 754,
    "Name": "Grenfell Road, Avondale",
    "Lat": 51.5129006,
    "Long": -0.214762686
  },
  "755": {
    "ID": 755,
    "Name": "The Vale, Chelsea",
    "Lat": 51.48512191,
    "Long": -0.174971902
  },
  "756": {
    "ID": 756,
    "Name": "Prince of Wales Drive, Battersea Park",
    "Lat": 51.47515398,
    "Long": -0.159169801
  },
  "757": {
    "ID": 757,
    "Name": "Harcourt Terrace, West Brompton",
    "Lat": 51.48795853,
    "Long": -0.187404506
  },
  "758": {
    "ID": 758,
    "Name": "Westbourne Park Road, Portobello",
    "Lat": 51.51787005,
    "Long": -0.201005397
  },
  "759": {
    "ID": 759,
    "Name": "Broadley Terrace, Marylebone",
    "Lat": 51.52456169,
    "Long": -0.165668686
  },
  "760": {
    "ID": 760,
    "Name": "Rossmore Road, Marylebone",
    "Lat": 51.52526975,
    "Long": -0.163795009
  },
  "761": {
    "ID": 761,
    "Name": "Humbolt Road, Fulham",
    "Lat": 51.48321729,
    "Long": -0.211860644
  },
  "762": {
    "ID": 762,
    "Name": "Storey's Gate, Westminster",
    "Lat": 51.50070305,
    "Long": -0.129698963
  },
  "763": {
    "ID": 763,
    "Name": "Mile End Park Leisure Centre, Mile End",
    "Lat": 51.52059714,
    "Long": -0.032566533
  },
  "764": {
    "ID": 764,
    "Name": "St. John's Road, Clapham Junction",
    "Lat": 51.46239255,
    "Long": -0.16829214
  },
  "765": {
    "ID": 765,
    "Name": "Ranelagh Gardens, Fulham",
    "Lat": 51.46760141,
    "Long": -0.20682737
  },
  "766": {
    "ID": 766,
    "Name": "Ram Street, Wandsworth",
    "Lat": 51.45752945,
    "Long": -0.192165613
  },
  "767": {
    "ID": 767,
    "Name": "Santos Road, Wandsworth",
    "Lat": 51.45705988,
    "Long": -0.200806304
  },
  "768": {
    "ID": 768,
    "Name": "Clapham Common North Side, Clapham Common",
    "Lat": 51.46134382,
    "Long": -0.159322467
  },
  "769": {
    "ID": 769,
    "Name": "Sandilands Road, Walham Green",
    "Lat": 51.473611,
    "Long": -0.191803
  },
  "770": {
    "ID": 770,
    "Name": "Gwendwr Road, West Kensington",
    "Lat": 51.491026,
    "Long": -0.209121
  },
  "771": {
    "ID": 771,
    "Name": "Rifle Place, Avondale",
    "Lat": 51.509224,
    "Long": -0.216016
  },
  "772": {
    "ID": 772,
    "Name": "Binfield Road, Stockwell",
    "Lat": 51.47250956,
    "Long": -0.122831913
  },
  "773": {
    "ID": 773,
    "Name": "Tallis Street, Temple",
    "Lat": 51.511891,
    "Long": -0.107349
  },
  "774": {
    "ID": 774,
    "Name": "Hurlingham Park, Parsons Green",
    "Lat": 51.470131,
    "Long": -0.20464
  },
  "775": {
    "ID": 775,
    "Name": "Little Brook Green, Brook Green",
    "Lat": 51.496664,
    "Long": -0.223868
  },
  "776": {
    "ID": 776,
    "Name": "Abyssinia Close, Clapham Junction",
    "Lat": 51.460333,
    "Long": -0.167029
  },
  "777": {
    "ID": 777,
    "Name": "Limburg Road, Clapham Junction",
    "Lat": 51.4619230679,
    "Long": -0.165297856693
  },
  "779": {
    "ID": 779,
    "Name": "Houndsditch, Aldgate",
    "Lat": 51.514449,
    "Long": -0.077178979
  },
  "780": {
    "ID": 780,
    "Name": "Imperial Wharf Station, Sands End",
    "Lat": 51.474665,
    "Long": -0.18316517
  },
  "781": {
    "ID": 781,
    "Name": "Victoria & Albert Museum, South Kensington",
    "Lat": 51.495898,
    "Long": -0.173009
  },
  "782": {
    "ID": 782,
    "Name": "Halford Road, West Kensington",
    "Lat": 51.483911,
    "Long": -0.19760944
  },
  "783": {
    "ID": 783,
    "Name": "Monier Road, Hackney Wick",
    "Lat": 51.5403115,
    "Long": -0.021630359
  },
  "784": {
    "ID": 784,
    "Name": "East Village, Queen Elizabeth Olympic Park",
    "Lat": 51.546326,
    "Long": -0.00993526
  },
  "785": {
    "ID": 785,
    "Name": "Aquatic Centre, Queen Elizabeth Olympic Park",
    "Lat": 51.54094,
    "Long": -0.010510565
  },
  "786": {
    "ID": 786,
    "Name": "Lee Valley VeloPark, Queen Elizabeth Olympic Park",
    "Lat": 51.549369,
    "Long": -0.015717614
  },
  "787": {
    "ID": 787,
    "Name": "Timber Lodge, Queen Elizabeth Olympic Park",
    "Lat": 51.546805,
    "Long": -0.01469126
  },
  "788": {
    "ID": 788,
    "Name": "Copper Box Arena, Queen Elizabeth Olympic Park",
    "Lat": 51.544836,
    "Long": -0.019524752
  },
  "789": {
    "ID": 789,
    "Name": "Podium, Queen Elizabeth Olympic Park",
    "Lat": 51.538718,
    "Long": -0.011889482
  },
  "790": {
    "ID": 790,
    "Name": "Stratford Station, Stratford",
    "Lat": 51.541793,
    "Long": -0.00481
  },
  "792": {
    "ID": 792,
    "Name": "Blackfriars Road, Southwark",
    "Lat": 51.505461,
    "Long": -0.10454093
  },
  "793": {
    "ID": 793,
    "Name": "Cromer Street, Bloomsbury",
    "Lat": 51.528279,
    "Long": -0.11955857
  },
  "794": {
    "ID": 794,
    "Name": "Lansdowne Way Bus Garage, Stockwell",
    "Lat": 51.474567,
    "Long": -0.12458
  },
  "795": {
    "ID": 795,
    "Name": "Euston Square Gardens, Euston",
    "Lat": 51.527068,
    "Long": -0.13186102
  },
  "796": {
    "ID": 796,
    "Name": "Coram Street, Bloomsbury",
    "Lat": 51.524,
    "Long": -0.12640984
  },
  "797": {
    "ID": 797,
    "Name": "Ossulston Street, Somers Town",
    "Lat": 51.5293,
    "Long": -0.12827903
  },
  "798": {
    "ID": 798,
    "Name": "Birkenhead Street, King's Cross",
    "Lat": 51.5301998755,
    "Long": -0.122299440803
  },
  "799": {
    "ID": 799,
    "Name": "Kings Gate House, Westminster",
    "Lat": 51.4976984561,
    "Long": -0.137598896295
  },
  "800": {
    "ID": 800,
    "Name": "Sopwith Way, Battersea Park",
    "Lat": 51.4811219398,
    "Long": -0.149035374873
  },
  "801": {
    "ID": 801,
    "Name": "Lavington Street, Bankside",
    "Lat": 51.5052241745,
    "Long": -0.0980318118664
  },
  "802": {
    "ID": 802,
    "Name": "Albert Square, Stockwell",
    "Lat": 51.4765900593,
    "Long": -0.118256789081
  },
  "803": {
    "ID": 803,
    "Name": "Southwark Street, Bankside",
    "Lat": 51.5054099403,
    "Long": -0.0983410884509
  },
  "804": {
    "ID": 804,
    "Name": "Good's Way, King's Cross",
    "Lat": 51.5346677396,
    "Long": -0.125078652873
  },
  "805": {
    "ID": 805,
    "Name": "Bevington Road, North Kensington",
    "Lat": 51.5200694188,
    "Long": -0.206338384307
  },
  "806": {
    "ID": 806,
    "Name": "Handyside Street, King's Cross",
    "Lat": 51.5372405623,
    "Long": -0.124807385707
  },
  "807": {
    "ID": 807,
    "Name": "Bevington Road West, North Kensington",
    "Lat": 51.5212,
    "Long": -0.20888818
  },
  "808": {
    "ID": 808,
    "Name": "Stockwell Roundabout, Stockwell",
    "Lat": 51.4734862092,
    "Long": -0.122555629777
  },
  "809": {
    "ID": 809,
    "Name": "Lincoln's Inn Fields, Holborn",
    "Lat": 51.5162778834,
    "Long": -0.118272991635
  },
  "810": {
    "ID": 810,
    "Name": "Tate Modern, Bankside",
    "Lat": 51.5067252868,
    "Long": -0.0988072461627
  },
  "811": {
    "ID": 811,
    "Name": "Westferry Circus, Canary Wharf",
    "Lat": 51.5057030357,
    "Long": -0.0277727426235
  },
  "812": {
    "ID": 812,
    "Name": "Here East North, Queen Elizabeth Olympic Park",
    "Lat": 51.5487311915,
    "Long": -0.0226065549321
  },
  "813": {
    "ID": 813,
    "Name": "New Spring Gardens Walk, Vauxhall",
    "Lat": 51.4878074485,
    "Long": -0.122759625866
  },
  "814": {
    "ID": 814,
    "Name": "Clapham Road, Lingham Street, Stockwell",
    "Lat": 51.4714330677,
    "Long": -0.123670735702
  },
  "815": {
    "ID": 815,
    "Name": "Lambeth Palace Road, Waterloo",
    "Lat": 51.5000891978,
    "Long": -0.116628700672
  },
  "816": {
    "ID": 816,
    "Name": "Here East South, Queen Elizabeth Olympic Park",
    "Lat": 51.5465327935,
    "Long": -0.0205975904647
  },
  "817": {
    "ID": 817,
    "Name": "Riverlight South, Nine Elms",
    "Lat": 51.4813354746,
    "Long": -0.138212295869
  },
  "818": {
    "ID": 818,
    "Name": "One Tower Bridge, Bermondsey",
    "Lat": 51.503127803,
    "Long": -0.078655507365
  },
  "819": {
    "ID": 819,
    "Name": "Belvedere Road 2, South Bank",
    "Lat": 51.50621,
    "Long": -0.114842
  },
  "820": {
    "ID": 820,
    "Name": "Victory Place, Walworth",
    "Lat": 51.492807,
    "Long": -0.091938
  },
  "821": {
    "ID": 821,
    "Name": "Battersea Power Station, Battersea Park",
    "Lat": 51.4835074867,
    "Long": -0.147714557371
  },
  "826": {
    "ID": 826,
    "Name": "Allington Street, Victoria",
    "Lat": 51.496863,
    "Long": -0.1429434
  },
  "828": {
    "ID": 828,
    "Name": "Normandy Road, Stockwell",
    "Lat": 51.473874,
    "Long": -0.11258096
  },
  "829": {
    "ID": 829,
    "Name": "Wynne Road, Stockwell",
    "Lat": 51.469217,
    "Long": -0.11268674
  },
  "830": {
    "ID": 830,
    "Name": "Sidney Road, Stockwell",
    "Lat": 51.469202,
    "Long": -0.11902256
  },
  "831": {
    "ID": 831,
    "Name": "St John's Crescent, Brixton",
    "Lat": 51.466232,
    "Long": -0.11317995
  },
  "832": {
    "ID": 832,
    "Name": "Ferndale Road, Brixton. ",
    "Lat": 51.464019,
    "Long": -0.11578197
  },
  "833": {
    "ID": 833,
    "Name": "Saltoun Road, Brixton",
    "Lat": 51.460232,
    "Long": -0.11537509
  },
  "835": {
    "ID": 835,
    "Name": "Farringdon Street, Holborn",
    "Lat": 51.516785,
    "Long": -0.10494775
  },
  "836": {
    "ID": 836,
    "Name": "York Way, Kings Cross",
    "Lat": 51.541596,
    "Long": -0.12544145
  },
  "838": {
    "ID": 838,
    "Name": "Fore Street Avenue, Guildhall",
    "Lat": 51.518093,
    "Long": -0.0914017
  }
}